City_ID,City,Lat,Lng,Max Temp,Humidity,Cloudiness,Wind Speed,Country,Date
0,nkhotakota,-12.9274,34.2961,22.46,87,100,2.69,MW,1673060609
1,craig,40.5153,-107.5464,-0.03,86,100,6.17,US,1673060610
2,albany,42.6001,-73.9662,3.0,87,57,1.79,US,1673060611
3,hilo,19.7297,-155.09,29.04,92,7,0.89,US,1673060611
4,havoysund,70.9963,24.6622,-0.87,80,51,10.98,NO,1673060612
5,pavino,59.1139,46.1414,-28.57,96,27,3.42,RU,1673060612
6,zelenoborskiy,66.845,32.3622,-18.7,97,25,1.9,RU,1673060613
7,elban,50.1018,136.5094,-19.82,92,90,2.13,RU,1673060613
8,ilulissat,69.2167,-51.1,-10.99,52,40,4.12,GL,1673060614
9,vilhena,-12.7406,-60.1458,20.11,98,100,1.4,BR,1673060615
10,khatanga,71.9667,102.5,-45.02,100,96,0.84,RU,1673060616
11,punta arenas,-53.15,-70.9167,13.95,63,99,1.2,CL,1673060616
12,victoria,22.2855,114.1577,19.62,58,82,4.02,HK,1673060570
13,columbus,39.9612,-82.9988,2.44,75,100,4.12,US,1673060617
14,busselton,-33.65,115.3333,22.35,42,71,2.68,AU,1673060422
15,sao filipe,14.8961,-24.4956,22.55,67,100,5.64,CV,1673060618
16,hithadhoo,-0.6,73.0833,27.05,75,16,3.77,MV,1673060618
17,paamiut,61.994,-49.6678,-6.83,57,100,3.11,GL,1673060619
18,dunedin,-45.8742,170.5036,15.45,95,50,4.39,NZ,1673060412
19,certegui,5.3707,-76.6044,22.42,99,96,0.67,CO,1673060620
20,norman wells,65.282,-126.8329,-26.64,100,62,0.88,CA,1673060620
21,kirando,-7.4167,30.6,22.3,82,100,4.09,TZ,1673060621
22,gat,31.61,34.7642,14.67,100,22,3.28,IL,1673060622
23,ushuaia,-54.8,-68.3,9.81,81,40,6.69,AR,1673060622
24,mayo,38.8876,-76.5119,7.19,64,100,2.06,US,1673060623
25,upernavik,72.7868,-56.1549,-26.85,87,5,4.73,GL,1673060623
26,kamenka,51.3223,42.7678,-18.71,85,6,5.44,RU,1673060624
27,aklavik,68.2191,-135.0107,-25.13,98,98,2.7,CA,1673060624
28,mataura,-46.1927,168.8643,19.84,40,16,3.66,NZ,1673060625
29,kavieng,-2.5744,150.7967,29.14,67,75,1.69,PG,1673060626
30,souillac,-20.5167,57.5167,25.48,74,99,4.97,MU,1673060626
31,cayenne,4.9333,-52.3333,23.02,94,0,0.0,GF,1673060626
32,cape town,-33.9258,18.4232,17.29,77,0,7.6,ZA,1673060483
33,lebu,-37.6167,-73.65,14.96,87,86,0.55,CL,1673060628
34,balkhash,46.844,74.9804,-2.66,86,75,4.0,KZ,1673060629
35,saskylakh,71.9167,114.0833,-45.95,100,76,2.14,RU,1673060630
36,lahij,13.1667,44.5833,19.35,87,24,1.75,YE,1673060630
37,kirensk,57.7853,108.1119,-8.96,95,100,2.39,RU,1673060344
38,eskilstuna,59.3666,16.5077,-2.12,89,100,5.85,SE,1673060631
39,esperance,-33.8667,121.9,18.26,64,88,6.53,AU,1673060417
40,port lincoln,-34.7333,135.8667,28.37,41,0,0.21,AU,1673060632
41,torbay,47.6666,-52.7314,-1.9,89,100,3.13,CA,1673060632
42,qasigiannguit,68.8193,-51.1922,-10.86,77,100,2.3,GL,1673060633
43,kodiak,57.79,-152.4072,-7.27,93,0,3.09,US,1673060633
44,bozuyuk,39.9078,30.0367,-3.81,88,9,1.22,TR,1673060634
45,namatanai,-3.6667,152.4333,28.75,73,99,2.01,PG,1673060635
46,atuona,-9.8,-139.0333,26.03,73,4,6.17,PF,1673060635
47,tuktoyaktuk,69.4541,-133.0374,-29.77,99,56,3.43,CA,1673060636
48,rikitea,-23.1203,-134.9692,25.85,75,5,6.73,PF,1673060636
49,tasiilaq,65.6145,-37.6368,-6.91,68,100,2.5,GL,1673060637
50,yaan,7.3833,8.5667,23.21,29,16,2.08,NG,1673060638
51,raahe,64.6833,24.4833,-22.95,90,100,3.45,FI,1673060639
52,port alfred,-33.5906,26.891,13.99,89,33,3.24,ZA,1673060639
53,champerico,14.3,-91.9167,25.44,73,1,2.64,GT,1673060640
54,kruisfontein,-34.0033,24.7314,11.6,75,2,1.81,ZA,1673060640
55,rio gallegos,-51.6226,-69.2181,11.16,68,100,2.08,AR,1673060641
56,xining,36.6167,101.7667,-0.84,17,0,1.16,CN,1673060632
57,cherskiy,68.75,161.3,-38.29,95,100,0.97,RU,1673060642
58,kapaa,22.0752,-159.319,26.99,75,20,4.12,US,1673060642
59,trinidad,-14.8333,-64.9,22.74,79,7,1.52,BO,1673060643
60,north platte,41.1239,-100.7654,-2.01,80,100,5.81,US,1673060644
61,katangli,51.7102,143.2326,-15.76,89,8,3.74,RU,1673060645
62,sibolga,1.7427,98.7792,26.16,83,100,0.46,ID,1673060645
63,tuatapere,-46.1333,167.6833,18.41,55,77,3.34,NZ,1673060646
64,isla vista,34.4133,-119.861,14.35,79,0,2.68,US,1673060647
65,varna,43.2167,27.9167,6.6,88,40,1.03,BG,1673060648
66,san cristobal,7.7669,-72.225,18.59,88,18,0.55,VE,1673060648
67,jamestown,42.097,-79.2353,1.77,75,100,4.63,US,1673060649
68,wahiawa,21.5028,-158.0236,25.18,66,0,4.12,US,1673060650
69,butaritari,3.0707,172.7902,27.07,78,96,5.89,KI,1673060651
70,sangar,63.9242,127.4739,-40.2,96,43,1.16,RU,1673060651
71,urucara,-2.5364,-57.76,22.93,97,100,0.36,BR,1673060652
72,vaini,-21.2,-175.2,29.09,84,40,6.17,TO,1673060653
73,ribeira grande,38.5167,-28.7,16.54,88,96,4.02,PT,1673060653
74,new norfolk,-42.7826,147.0587,22.73,30,0,2.89,AU,1673060654
75,saint-philippe,-21.3585,55.7679,25.77,81,97,5.11,RE,1673060654
76,naze,28.3667,129.4833,14.74,55,2,8.74,JP,1673060542
77,tilichiki,60.4667,166.1,-25.66,90,98,4.25,RU,1673060655
78,hambantota,6.1241,81.1185,26.01,76,54,6.36,LK,1673060421
79,pontecorvo,41.4616,13.6667,11.47,85,1,1.09,IT,1673060656
80,dikson,73.5069,80.5464,-34.26,99,87,1.37,RU,1673060656
81,lalibela,12.0333,39.0333,12.32,61,7,1.45,ET,1673060657
82,taltal,-25.4,-70.4833,20.2,74,0,0.88,CL,1673060658
83,maceio,-9.6658,-35.7353,23.69,94,20,0.51,BR,1673060658
84,general pico,-35.6566,-63.7568,24.5,24,27,4.0,AR,1673060659
85,longyearbyen,78.2186,15.6401,-3.09,80,75,4.63,SJ,1673060659
86,bandar-e lengeh,26.5579,54.8807,18.71,78,99,3.04,IR,1673060660
87,geraldton,-28.7667,114.6,24.23,46,0,8.75,AU,1673060661
88,makakilo city,21.3469,-158.0858,26.18,63,0,4.12,US,1673060662
89,inta,66.0317,60.1659,-36.02,98,28,2.32,RU,1673060662
90,hermanus,-34.4187,19.2345,12.67,79,0,4.63,ZA,1673060663
91,san policarpo,12.1791,125.5072,27.38,75,100,7.02,PH,1673060663
92,fortuna,40.5982,-124.1573,13.19,87,100,11.32,US,1673060664
93,nanortalik,60.1432,-45.2371,-7.77,57,33,3.11,GL,1673060665
94,bluff,-46.6,168.3333,14.37,63,0,10.69,NZ,1673060665
95,takoradi,4.8845,-1.7554,25.47,86,56,2.62,GH,1673060665
96,lac du bonnet,50.2536,-96.0612,-19.05,99,83,1.55,CA,1673060666
97,kaitangata,-46.2817,169.8464,14.48,58,7,4.73,NZ,1673060667
98,sawakin,19.1059,37.3321,21.27,59,98,4.57,SD,1673060667
99,merauke,-8.4667,140.3333,29.64,69,100,5.52,ID,1673060668
100,shimoda,34.6667,138.95,8.39,51,34,0.64,JP,1673060423
101,bethel,41.3712,-73.414,5.01,87,100,1.54,US,1673060669
102,kaeo,-35.1,173.7833,22.4,97,100,3.73,NZ,1673060669
103,constitucion,-35.3333,-72.4167,13.94,90,2,1.59,CL,1673060670
104,richards bay,-28.783,32.0377,18.77,85,100,6.17,ZA,1673060671
105,harper,4.375,-7.7169,25.48,83,38,2.36,LR,1673060671
106,lavrentiya,65.5833,-171.0,-14.9,96,99,0.9,RU,1673060671
107,bengkulu,-3.8004,102.2655,27.6,68,46,2.48,ID,1673060672
108,mahebourg,-20.4081,57.7,26.81,72,93,5.32,MU,1673060672
109,najran,17.4924,44.1277,13.7,72,0,1.32,SA,1673060673
110,chuy,-33.6971,-53.4616,19.5,82,0,4.2,UY,1673060673
111,pochutla,15.7432,-96.4661,22.25,82,0,1.86,MX,1673060674
112,kastamonu,41.5,33.6667,1.11,83,83,2.55,TR,1673060674
113,abu samrah,35.3029,37.1841,8.36,94,100,4.74,SY,1673060675
114,puerto ayora,-0.7393,-90.3518,23.08,97,41,2.43,EC,1673060676
115,huarmey,-10.0681,-78.1522,20.39,80,48,2.65,PE,1673060676
116,diego de almagro,-26.3667,-70.05,18.68,45,0,0.35,CL,1673060677
117,baruun-urt,46.6806,113.2792,-13.33,76,100,4.05,MN,1673060677
118,taiyuan,37.8694,112.5603,2.92,25,0,1.0,CN,1673060673
119,hobart,-42.8794,147.3294,22.37,59,75,5.14,AU,1673060330
120,hasaki,35.7333,140.8333,9.01,81,94,3.5,JP,1673060678
121,padilla,3.2204,-76.3139,21.76,97,100,0.25,CO,1673060679
122,ixtapa,20.7,-105.2,24.01,94,0,1.03,MX,1673060679
123,barrow,71.2906,-156.7887,-20.41,95,83,8.29,US,1673060399
124,bredasdorp,-34.5322,20.0403,16.19,81,21,2.41,ZA,1673060680
125,beringovskiy,63.05,179.3167,-21.27,97,85,3.96,RU,1673060681
126,saint-pierre,-21.3393,55.4781,26.06,61,86,2.06,RE,1673060408
127,praya,14.9215,-23.5087,22.3,78,0,7.72,CV,1673060682
128,sakakah,29.9697,40.2064,8.5,69,0,1.73,SA,1673060683
129,kavaratti,10.5669,72.642,27.4,63,34,3.55,IN,1673060406
130,kenitra,34.261,-6.5802,6.42,79,0,1.19,MA,1673060684
131,rawlins,41.7911,-107.2387,-5.47,93,100,5.18,US,1673060684
132,mar del plata,-38.0023,-57.5575,21.64,88,98,8.05,AR,1673060685
133,pangody,65.85,74.4859,-39.62,92,36,3.44,RU,1673060685
134,college,64.8569,-147.8028,-15.23,82,100,0.0,US,1673060686
135,aswan,24.0934,32.907,11.35,51,0,3.91,EG,1673060686
136,batemans bay,-35.7167,150.1833,19.5,62,91,3.94,AU,1673060687
137,bowen,-20.0167,148.2333,28.15,67,100,3.28,AU,1673060688
138,portoferraio,42.8115,10.3146,15.05,71,100,1.31,IT,1673060689
139,havre-saint-pierre,50.2334,-63.5986,-8.8,62,100,4.12,CA,1673060690
140,flin flon,54.7682,-101.865,-13.48,97,100,2.55,CA,1673060690
141,tabuk,17.4189,121.4443,22.43,85,98,0.98,PH,1673060691
142,chokurdakh,70.6333,147.9167,-39.99,100,100,0.99,RU,1673060693
143,isangel,-19.55,169.2667,27.03,87,97,6.47,VU,1673060694
144,atasu,48.6814,71.6433,-9.03,98,98,3.71,KZ,1673060694
145,san patricio,28.017,-97.5169,21.92,84,0,6.9,US,1673060695
146,qaanaaq,77.484,-69.3632,-24.1,98,100,1.0,GL,1673060696
147,shafranovo,53.9667,54.7667,-32.23,99,6,1.98,RU,1673060696
148,klaksvik,62.2266,-6.589,2.51,65,100,6.74,FO,1673060697
149,mazamet,43.49,2.373,10.79,81,0,9.26,FR,1673060697
150,matara,5.9485,80.5353,25.33,82,31,1.37,LK,1673060698
151,hamilton,39.1834,-84.5333,0.55,85,85,1.63,US,1673060405
152,vardo,70.3705,31.1107,-1.01,74,20,7.2,NO,1673060699
153,semnan,35.5729,53.3971,0.42,88,49,0.87,IR,1673060699
154,sao sebastiao,-23.76,-45.4097,19.49,90,100,0.87,BR,1673060700
155,belmonte,-15.8631,-38.8828,24.79,91,100,3.35,BR,1673060700
156,loa janan,-0.583,117.095,30.52,61,100,1.44,ID,1673060701
157,pisco,-13.7,-76.2167,20.03,94,75,2.06,PE,1673060702
158,katsuura,35.1333,140.3,9.21,61,81,1.97,JP,1673060702
159,okhotsk,59.3833,143.3,-26.74,85,24,5.23,RU,1673060703
160,qeshm,26.9581,56.2719,15.93,79,96,1.24,IR,1673060508
161,sinegorye,62.0788,150.477,-34.92,97,99,0.08,RU,1673060704
162,rio brilhante,-21.8019,-54.5464,21.17,87,91,2.33,BR,1673060704
163,sao joao da barra,-21.6403,-41.0511,21.6,95,100,6.2,BR,1673060705
164,iroquois falls,48.7669,-80.6831,-13.92,96,99,2.79,CA,1673060705
165,mazagao,-0.115,-51.2894,25.03,90,82,2.19,BR,1673060706
166,wagar,16.1525,36.2032,18.42,69,8,6.19,SD,1673060598
167,lorengau,-2.0226,147.2712,28.34,74,100,6.02,PG,1673060707
168,sawtell,-30.3833,153.1,26.01,61,40,7.2,AU,1673060707
169,puerto baquerizo moreno,-0.9,-89.6,22.74,86,44,3.58,EC,1673060708
170,yellowknife,62.456,-114.3525,-15.4,99,97,1.85,CA,1673060454
171,ust-koksa,50.2696,85.6108,-10.39,94,100,0.15,RU,1673060709
172,llanera,43.4619,-5.9311,8.38,65,0,0.51,ES,1673060709
173,tecoanapa,16.5167,-98.75,25.46,76,0,1.01,MX,1673060710
174,mount gambier,-37.8333,140.7667,31.91,20,0,0.66,AU,1673060490
175,narsaq,60.9167,-46.05,-7.88,64,100,3.24,GL,1673060711
176,baghdad,33.3406,44.4009,5.95,100,100,1.03,IQ,1673060711
177,mount isa,-20.7333,139.5,32.87,43,100,3.6,AU,1673060712
178,pandan,14.0453,124.1694,25.36,84,84,7.1,PH,1673060713
179,lompoc,34.6391,-120.4579,11.23,82,20,3.13,US,1673060700
180,kozhva,65.1073,57.0459,-40.33,100,69,1.14,RU,1673060713
181,severo-kurilsk,50.6789,156.125,-3.89,74,74,6.13,RU,1673060714
182,halifax,44.6453,-63.5724,0.68,94,100,5.81,CA,1673060521
183,arraial do cabo,-22.9661,-42.0278,20.87,89,100,5.28,BR,1673060715
184,gunjur,13.2019,-16.7339,19.04,82,0,1.54,GM,1673060715
185,nikolskoye,59.7035,30.7861,-9.06,99,81,1.26,RU,1673060716
186,tatarsk,55.219,75.9828,-11.55,96,100,3.91,RU,1673060716
187,bathsheba,13.2167,-59.5167,26.34,78,40,8.75,BB,1673060717
188,port elizabeth,-33.918,25.5701,14.62,85,0,0.89,ZA,1673060429
189,balkanabat,39.5108,54.3671,7.3,66,0,2.07,TM,1673060717
190,provideniya,64.3833,-173.3,-15.66,95,86,2.81,RU,1673060718
191,elat,29.5581,34.9482,9.91,71,5,1.54,IL,1673060718
192,vaitape,-16.5167,-151.75,27.29,72,38,3.55,PF,1673060720
193,pueblo,38.2545,-104.6091,6.42,43,81,1.34,US,1673060553
194,zhigansk,66.7697,123.3711,-45.86,100,96,0.65,RU,1673060721
195,pontes e lacerda,-15.2261,-59.3353,22.57,89,86,1.12,BR,1673060721
196,codrington,-38.2667,141.9667,29.51,28,0,4.2,AU,1673060722
197,kununurra,-15.7667,128.7333,29.99,70,75,6.17,AU,1673060605
198,huron,41.1501,-82.5499,0.94,88,100,3.59,US,1673060723
199,andros town,24.7,-77.7667,23.98,76,7,7.31,BS,1673060723
200,pando,-34.7167,-55.95,23.27,59,4,6.45,UY,1673060724
201,sitka,57.0531,-135.33,5.94,81,100,2.06,US,1673060725
202,nome,64.5011,-165.4064,-8.96,86,100,2.06,US,1673060725
203,sinnamary,5.3833,-52.95,24.17,92,100,5.0,GF,1673060726
204,sungaipenuh,-2.0833,101.3833,23.33,68,95,1.91,ID,1673060726
205,avarua,-21.2078,-159.775,24.03,73,100,3.6,CK,1673060727
206,aguilas,37.4063,-1.5829,11.73,81,0,1.52,ES,1673060727
207,porgera,-5.4667,143.2,11.15,81,100,1.63,PG,1673060728
208,castro,-24.7911,-50.0119,14.15,92,64,4.27,BR,1673060552
209,kollam,8.8833,76.6,25.53,64,17,4.96,IN,1673060277
210,deogarh,21.5333,84.7333,16.17,27,0,1.1,IN,1673060730
211,tiksi,71.6872,128.8694,-33.5,99,99,2.07,RU,1673060731
212,azare,11.6765,10.1948,14.94,29,52,3.67,NG,1673060731
213,boulder city,35.9786,-114.8325,9.36,62,0,3.6,US,1673060732
214,saldanha,-33.0117,17.9442,16.56,79,0,5.58,ZA,1673060732
215,olafsvik,64.8945,-23.7142,0.76,70,100,12.5,IS,1673060733
216,guerrero negro,27.9769,-114.0611,16.06,78,0,3.89,MX,1673060734
217,vanimo,-2.6741,141.3028,26.63,86,100,1.44,PG,1673060734
218,hobyo,5.3505,48.5268,24.55,78,72,6.54,SO,1673060735
219,carnarvon,-24.8667,113.6333,27.8,46,0,9.64,AU,1673060735
220,zhezkazgan,47.8043,67.7144,-4.01,86,75,5.0,KZ,1673060736
221,port blair,11.6667,92.75,29.02,65,40,3.09,IN,1673060736
222,willmar,45.1219,-95.0433,-16.99,78,0,1.54,US,1673060737
223,killybegs,54.6333,-8.45,6.52,75,100,5.73,IE,1673060738
224,horta,38.5333,-28.6333,16.12,88,97,4.02,PT,1673060738
225,fairbanks,64.8378,-147.7164,-15.22,81,100,0.0,US,1673060739
226,hanzhong,33.0728,107.0303,9.41,62,0,0.5,CN,1673060740
227,khani,41.9563,42.9566,2.76,99,99,2.52,GE,1673060741
228,cassia,-20.5831,-46.9219,19.02,99,100,1.19,BR,1673060741
229,fjerritslev,57.0813,9.2664,4.94,96,100,5.89,DK,1673060742
230,iwanai,42.9744,140.5089,-0.34,71,99,1.2,JP,1673060743
231,cidreira,-30.1811,-50.2056,21.89,71,0,6.21,BR,1673060743
232,vila velha,-20.3297,-40.2925,22.97,96,100,4.63,BR,1673060745
233,orange cove,36.6244,-119.3137,10.81,93,0,2.06,US,1673060745
234,grand forks,47.9417,-97.4337,-20.15,92,0,1.54,US,1673060746
235,namibe,-15.1961,12.1522,21.27,73,69,3.14,AO,1673060747
236,talnakh,69.4865,88.3972,-43.22,98,59,0.5,RU,1673060747
237,auki,-8.7676,160.7034,29.31,72,100,2.16,SB,1673060748
238,ponta do sol,32.6667,-17.1,17.78,75,60,2.12,PT,1673060748
239,karachi,24.9056,67.0822,15.9,31,4,3.09,PK,1673060659
240,oranjemund,-28.55,16.4333,17.41,71,0,3.58,NA,1673060749
241,berlevag,70.8578,29.0864,-5.11,60,61,7.08,NO,1673060750
242,mandalgovi,45.7625,106.2708,-7.6,56,100,6.72,MN,1673060750
243,winnemucca,40.973,-117.7357,2.03,69,0,4.12,US,1673060751
244,great falls,47.5002,-111.3008,4.12,78,0,6.69,US,1673060699
245,kanel,15.4916,-13.1763,22.16,18,90,4.24,SN,1673060751
246,ranong,9.9658,98.6348,27.02,60,87,4.7,TH,1673060752
247,angoram,-4.0625,144.0661,24.93,96,100,0.16,PG,1673060753
248,tautira,-17.7333,-149.15,26.99,73,80,3.33,PF,1673060753
249,mariental,-24.6333,17.9667,19.42,26,0,4.15,NA,1673060754
250,lata,40.1629,-8.3327,12.26,87,99,2.62,PT,1673060754
251,tiquicheo,18.8833,-100.7333,24.89,43,2,1.09,MX,1673060755
252,semirom,31.4167,51.5667,-6.21,94,86,1.69,IR,1673060755
253,bambous virieux,-20.3428,57.7575,26.79,72,92,5.29,MU,1673060756
254,ikom,5.9667,8.7063,20.46,41,62,0.36,NG,1673060757
255,ancud,-41.8697,-73.8203,13.84,95,88,2.06,CL,1673060757
256,lasa,46.6166,10.7002,3.94,45,100,0.98,IT,1673060758
257,vao,-22.6667,167.4833,27.35,77,35,4.31,NC,1673060758
258,hay river,60.8156,-115.7999,-16.92,98,87,2.91,CA,1673060759
259,peniche,39.3558,-9.3811,15.16,89,85,7.42,PT,1673060759
260,riyadh,24.6877,46.7219,10.25,88,23,2.23,SA,1673060408
261,thompson,55.7435,-97.8558,-11.34,94,100,2.93,CA,1673060760
262,farafangana,-22.8167,47.8333,23.32,91,17,0.88,MG,1673060760
263,murgab,37.4966,61.9714,8.97,51,1,4.0,TM,1673060761
264,saint-joseph,-21.3667,55.6167,25.21,78,90,4.83,RE,1673060762
265,aden,12.7794,45.0367,24.62,72,8,5.29,YE,1673060762
266,puente alto,-33.6167,-70.5833,22.36,41,100,1.21,CL,1673060763
267,bedesa,8.9,40.7833,14.51,73,4,1.12,ET,1673060763
268,east london,-33.0153,27.9116,16.27,70,53,3.24,ZA,1673060737
269,saint anthony,45.0205,-93.218,-13.04,84,0,2.06,US,1673060764
270,zonguldak,41.25,31.8333,3.97,85,97,1.12,TR,1673060765
271,dulyapino,57.2578,40.8147,-30.69,100,74,2.79,RU,1673060766
272,broken hill,-31.95,141.4333,29.92,23,0,4.31,AU,1673060766
273,zabid,14.1951,43.3152,23.21,76,14,0.76,YE,1673060767
274,korhogo,9.45,-5.6333,21.41,30,2,0.58,CI,1673060767
275,faanui,-16.4833,-151.75,27.29,72,43,3.58,PF,1673060768
276,atikokan,48.7555,-91.6216,-17.68,100,84,1.38,CA,1673060769
277,saint george,37.1041,-113.5841,8.33,79,0,0.89,US,1673060770
278,isla mujeres,21.2311,-86.731,23.03,78,20,7.41,MX,1673060771
279,cao bang,22.6667,106.25,20.64,39,0,0.51,VN,1673060724
280,lazaro cardenas,17.9583,-102.2,24.3,78,0,1.72,MX,1673060771
281,grindavik,63.8424,-22.4338,-0.74,74,0,6.69,IS,1673060772
282,nabire,-3.3667,135.4833,31.09,57,74,2.23,ID,1673060773
283,touros,-5.1989,-35.4608,25.76,73,8,4.92,BR,1673060773
284,venado tuerto,-33.7456,-61.9688,26.54,29,88,4.34,AR,1673060774
285,nakamura,32.9833,132.9333,10.2,54,47,6.24,JP,1673060775
286,llangefni,53.2556,-4.3106,10.96,59,100,11.32,GB,1673060775
287,dingle,10.9995,122.6711,27.09,79,100,7.59,PH,1673060776
288,oranjestad,12.524,-70.027,26.06,84,0,0.89,AW,1673060777
289,borba,-4.3878,-59.5939,21.92,99,97,0.44,BR,1673060778
290,torrijos,39.9819,-4.2835,4.48,82,0,2.14,ES,1673060779
291,manchenky,49.9798,35.8583,-11.28,57,3,3.99,UA,1673060779
292,tondano,1.3038,124.9112,22.05,63,100,2.51,ID,1673060780
293,huejuquilla el alto,22.6,-103.8667,12.41,43,0,1.23,MX,1673060780
294,dothan,31.2232,-85.3905,8.11,75,0,2.06,US,1673060781
295,luderitz,-26.6481,15.1594,19.74,53,0,4.87,NA,1673060781
296,freeport,40.6576,-73.5832,6.2,73,100,5.14,US,1673060696
297,rezekne,56.5,27.3167,-13.45,83,100,3.06,LV,1673060782
298,tarancon,40.0085,-3.0073,2.86,62,0,1.21,ES,1673060783
299,naestved,55.2299,11.7609,5.44,96,100,4.07,DK,1673060783
300,sola,-13.8833,167.55,27.83,78,86,7.39,VU,1673060784
301,egvekinot,66.3167,-179.1667,-21.73,92,100,3.62,RU,1673060785
302,yarmouth,41.7057,-70.2286,5.03,95,100,6.26,US,1673060786
303,nacala,-14.5428,40.6728,25.15,90,100,2.36,MZ,1673060786
304,mildura,-34.2,142.15,33.37,30,0,4.21,AU,1673060728
305,michigan city,41.7075,-86.895,-0.88,83,85,1.78,US,1673060788
306,hualmay,-11.0964,-77.6139,21.02,77,99,3.13,PE,1673060788
307,west bay,19.3667,-81.4167,27.04,81,40,5.66,KY,1673060789
308,rawson,-43.3002,-65.1023,21.92,63,31,3.8,AR,1673060790
309,husavik,66.0449,-17.3389,-2.8,91,100,0.29,IS,1673060791
310,izazi,-7.2,35.7333,19.63,90,100,1.17,TZ,1673060792
311,buala,-8.145,159.5921,28.58,75,100,2.95,SB,1673060792
312,elizabeth city,36.2946,-76.2511,6.12,85,3,0.0,US,1673060793
313,terre-de-bas,15.8501,-61.6442,22.73,78,36,7.73,GP,1673060793
314,loreto,22.2667,-101.9667,13.82,30,0,3.41,MX,1673060794
315,pangnirtung,66.1451,-65.7125,-20.4,96,100,1.16,CA,1673060794
316,hamina,60.5697,27.1979,-8.4,82,100,3.0,FI,1673060795
317,manuk mangkaw,4.8,119.85,28.09,73,100,3.05,PH,1673060596
318,leningradskiy,69.3833,178.4167,-23.39,98,100,3.7,RU,1673060796
319,ambilobe,-13.2,49.05,22.69,89,64,1.35,MG,1673060796
320,barentu,15.1139,37.5928,16.62,72,2,1.85,ER,1673060797
321,cumana,10.4635,-64.1775,24.2,88,8,4.63,VE,1673060798
322,iqaluit,63.7506,-68.5145,-25.17,75,100,5.81,CA,1673060798
323,ketchikan,55.3422,-131.6461,6.99,93,100,0.0,US,1673060799
324,kurunegala,7.4863,80.3623,25.7,73,40,2.49,LK,1673060799
325,vila franca do campo,37.7167,-25.4333,15.23,92,100,2.8,PT,1673060800
326,sao felix do xingu,-6.6447,-51.995,21.66,99,100,1.03,BR,1673060800
327,mundo nuevo,18.7,-95.5,22.79,88,0,3.22,MX,1673060801
328,cabedelo,-6.9811,-34.8339,25.37,75,90,4.36,BR,1673060802
329,ban nahin,18.2418,104.2122,22.67,40,51,2.0,LA,1673060802
330,songjianghe,42.1859,127.479,-6.33,84,100,2.0,CN,1673060803
331,ust-ordynskiy,52.805,104.7508,-11.26,89,100,1.85,RU,1673060803
332,tortoli,39.9256,9.6572,11.75,73,20,1.85,IT,1673060804
333,alice springs,-23.7,133.8833,26.75,36,40,5.14,AU,1673060804
334,baykit,61.67,96.37,-18.59,100,100,0.81,RU,1673060805
335,arcos,-20.2819,-45.5394,18.93,96,100,3.61,BR,1673060806
336,filingue,14.3521,3.3168,19.84,22,19,4.55,NE,1673060806
337,cehegin,38.0924,-1.7985,6.77,69,0,1.34,ES,1673060807
338,minab,27.1467,57.0801,17.72,87,84,1.73,IR,1673060807
339,poum,-20.2333,164.0167,27.88,84,89,10.21,NC,1673060808
340,cabo san lucas,22.8909,-109.9124,21.95,81,0,0.0,MX,1673060793
341,corrente,-3.7367,-43.3394,22.88,94,100,0.79,BR,1673060809
342,mnogovershinnyy,53.9353,139.9242,-18.82,82,18,2.08,RU,1673060810
343,mattru,7.6244,-11.8332,20.99,96,2,1.14,SL,1673060810
344,osoyoos,49.0331,-119.4524,3.27,99,100,1.46,CA,1673060811
345,sombrerete,23.6333,-103.65,11.2,33,9,2.34,MX,1673060811
346,georgetown,5.4112,100.3354,28.96,65,20,4.12,MY,1673060812
347,wairoa,-39.0333,177.3667,19.75,92,100,0.89,NZ,1673060813
348,benguela,-12.5763,13.4055,24.27,81,100,0.57,AO,1673060813
349,yueyang,29.3333,113.0919,15.72,35,0,3.54,CN,1673060518
350,terney,45.0503,136.6092,-6.61,52,9,1.22,RU,1673060814
351,hofn,64.2539,-15.2082,-0.76,69,100,7.04,IS,1673060814
352,khudumelapye,-23.8833,24.75,17.52,47,21,3.98,BW,1673060815
353,davidson,36.1501,-86.7833,6.87,65,0,2.06,US,1673060815
354,nago,26.5881,127.9761,19.14,56,0,6.74,JP,1673060405
355,arlit,18.7369,7.3853,18.38,25,75,1.96,NE,1673060816
356,senneterre,48.3835,-77.2328,-16.86,100,99,1.4,CA,1673060817
357,kanniyakumari,8.0833,77.5667,25.83,68,9,10.5,IN,1673060817
358,quelimane,-17.8786,36.8883,23.0,93,100,1.25,MZ,1673060818
359,tura,25.5198,90.2201,18.94,45,0,0.71,IN,1673060819
360,labuhan,-6.8844,112.2051,28.66,66,64,2.83,ID,1673060819
361,san quintin,30.4833,-115.95,14.66,78,100,4.06,MX,1673060820
362,ust-dzheguta,44.0834,41.9763,-0.1,97,100,6.93,RU,1673060820
363,port augusta,-32.5,137.7667,35.1,14,0,0.71,AU,1673060821
364,basco,20.4487,121.9702,24.05,68,64,7.82,PH,1673060821
365,synya,65.3718,58.0387,-41.11,100,73,1.14,RU,1673060822
366,conceicao do araguaia,-8.2578,-49.2647,22.55,96,100,1.57,BR,1673060823
367,urumqi,43.801,87.6005,-6.47,74,100,2.0,CN,1673060824
368,bedford,52.1346,-0.4663,13.15,78,100,10.56,GB,1673060825
369,kampot,10.6167,104.1833,26.03,66,91,6.9,KH,1673060826
370,tahe,52.3333,124.7333,-17.3,88,98,0.35,CN,1673060826
371,kodinsk,58.6881,99.1844,-11.16,94,100,4.23,RU,1673060827
372,marawi,7.9986,124.2928,20.39,95,100,1.4,PH,1673060536
373,ostrovnoy,68.0531,39.5131,-14.95,97,89,1.9,RU,1673060828
374,cockburn town,21.4612,-71.1419,25.85,77,11,8.17,TC,1673060828
375,wahlern,46.8281,7.3532,4.44,85,100,2.06,CH,1673060829
376,airai,-8.9266,125.4092,22.21,66,66,2.61,TL,1673060830
377,christchurch,-43.5333,172.6333,16.34,79,100,6.69,NZ,1673060705
378,dalvik,65.9702,-18.5286,-3.14,91,99,0.95,IS,1673060831
379,burnie,-41.0667,145.9167,17.82,63,37,5.77,AU,1673060832
380,buedu,8.2803,-10.3719,17.35,53,3,0.23,SL,1673060832
381,kabarnet,0.4919,35.743,11.56,73,3,1.73,KE,1673060833
382,karasuk,53.7377,78.0403,-7.56,96,100,3.98,RU,1673060834
383,cascais,38.6979,-9.4215,15.84,95,64,4.02,PT,1673060834
384,gaozhou,21.9392,110.8461,21.5,41,32,1.31,CN,1673060835
385,santiago del estero,-27.7951,-64.2615,32.22,20,99,6.09,AR,1673060835
386,atar,20.5169,-13.0499,17.25,22,89,4.62,MR,1673060836
387,olinda,-8.0089,-34.8553,26.85,74,75,3.6,BR,1673060836
388,qostanay,53.1667,63.5833,0.16,93,100,11.0,KZ,1673060837
389,muyezerskiy,63.9333,31.65,-17.79,99,96,3.33,RU,1673060837
390,kamaishi,39.2667,141.8833,4.39,57,100,0.63,JP,1673060838
391,kortkeros,61.8106,51.5806,-23.0,100,27,1.58,RU,1673060838
392,gornyye klyuchi,45.25,133.5,-14.73,87,22,1.23,RU,1673060839
393,aksu,41.1231,80.2644,-4.18,45,2,0.7,CN,1673060840
394,saint-augustin,51.226,-58.6502,-12.24,85,88,2.09,CA,1673060841
395,russell,32.3502,-85.1999,8.34,87,0,1.54,US,1673060842
396,marsa matruh,31.3525,27.2453,15.97,73,31,4.56,EG,1673060842
397,grand gaube,-20.0064,57.6608,26.88,69,100,2.68,MU,1673060843
398,mahon,39.8885,4.2658,14.31,77,75,4.12,ES,1673060843
399,haines junction,60.7522,-137.5108,-15.31,99,98,0.43,CA,1673060844
400,brae,60.3964,-1.353,7.01,83,100,7.6,GB,1673060844
401,madawaska,47.3561,-68.3288,-2.38,93,100,3.6,US,1673060845
402,kisangani,0.5167,25.2,20.61,73,69,1.05,CD,1673060846
403,koge,55.458,12.1821,5.74,100,75,1.54,DK,1673060846
404,insch,57.3427,-2.6132,7.73,94,100,6.42,GB,1673060847
405,birao,10.2849,22.7882,17.51,27,48,4.17,CF,1673060847
406,ponta delgada,37.7333,-25.6667,15.4,94,40,0.0,PT,1673060848
407,lagoa,39.05,-27.9833,15.03,81,100,6.34,PT,1673060848
408,qarchi gak,37.04,66.7889,8.01,48,63,5.24,AF,1673060849
409,chicama,-7.8447,-79.1469,16.3,76,99,1.82,PE,1673060850
410,hirschaid,49.8194,10.9908,8.74,92,99,1.6,DE,1673060851
411,soto la marina,23.7667,-98.2167,20.21,91,0,4.25,MX,1673060852
412,roma,43.2128,-75.4557,3.31,92,100,1.54,US,1673060852
413,quarai,-30.3875,-56.4514,24.18,27,0,8.45,BR,1673060853
414,igarka,67.4667,86.5833,-42.25,97,18,3.1,RU,1673060854
415,wasilla,61.5814,-149.4394,-7.61,81,75,4.63,US,1673060854
416,upington,-28.4478,21.2561,17.47,48,0,7.33,ZA,1673060855
417,anadyr,64.75,177.4833,-20.0,76,100,3.58,RU,1673060855
418,flinders,-34.5833,150.8552,21.14,69,94,6.36,AU,1673060856
419,vallenar,-28.5708,-70.7581,19.63,62,0,1.57,CL,1673060857
420,minudasht,37.2289,55.3747,8.24,59,0,5.0,IR,1673060857
421,maxixe,-23.8597,35.3472,23.58,94,100,3.5,MZ,1673060858
422,pitimbu,-7.4706,-34.8086,25.33,74,99,4.01,BR,1673060858
423,coolum beach,-26.5333,153.1,27.97,69,21,0.45,AU,1673060859
424,comodoro rivadavia,-45.8667,-67.5,22.92,38,0,4.63,AR,1673060859
425,homer,59.6425,-151.5483,-2.89,84,0,1.54,US,1673060860
426,ca mau,9.1769,105.15,25.0,63,100,5.57,VN,1673060860
427,beyneu,45.3167,55.2,2.54,89,100,4.49,KZ,1673060861
428,paita,-5.0892,-81.1144,19.94,82,100,4.61,PE,1673060862
429,minot,48.2325,-101.2963,-13.88,85,100,2.57,US,1673060862
430,yilan,24.757,121.753,21.12,67,97,1.88,TW,1673060647
431,deer lake,49.1667,-57.4316,-8.75,89,99,0.68,CA,1673060863
432,vestmanna,62.1564,-7.1664,1.51,75,75,7.72,FO,1673060864
433,tera,14.0078,0.7531,21.06,23,5,4.32,NE,1673060864
434,presidencia roque saenz pena,-26.7852,-60.4388,24.6,38,24,3.38,AR,1673060865
435,timiryazevskoye,56.49,84.8769,-18.47,100,98,1.55,RU,1673060866
436,warmbad,-28.45,18.7333,20.07,37,0,8.74,NA,1673060867
437,ust-nera,64.5667,143.2,-35.42,99,100,1.69,RU,1673060867
438,mehamn,71.0357,27.8492,-6.03,68,54,2.57,NO,1673060868
439,villiers,-27.0303,28.6006,12.01,79,100,4.63,ZA,1673060868
440,bustamante,26.5333,-100.5,20.23,56,0,4.7,MX,1673060869
441,djenne,13.9061,-4.5533,22.22,25,3,3.68,ML,1673060869
442,booue,-0.0921,11.9385,22.08,98,99,0.91,GA,1673060870
443,shingu,33.7333,135.9833,8.93,67,93,0.76,JP,1673060871
444,port moresby,-9.4431,147.1797,26.59,73,100,5.14,PG,1673060705
445,pimentel,-6.8367,-79.9342,18.16,94,40,4.63,PE,1673060871
446,kyra,49.5776,111.9753,-13.94,75,100,0.81,RU,1673060872
447,ust-kuyga,70.0167,135.6,-37.82,100,100,1.77,RU,1673060873
448,hanstholm,57.1167,8.6167,6.02,96,97,6.2,DK,1673060873
449,deputatskiy,69.3,139.9,-38.34,99,98,1.22,RU,1673060874
450,safaga,26.7292,33.9365,16.2,56,0,5.86,EG,1673060875
451,luba,3.4568,8.5547,26.07,81,99,2.0,GQ,1673060875
452,buraydah,26.326,43.975,9.66,60,0,1.79,SA,1673060876
453,nouadhibou,20.931,-17.0347,19.45,48,1,6.13,MR,1673060876
454,bauta,22.9828,-82.5464,22.94,73,0,5.14,CU,1673060877
455,sivaki,52.6333,126.75,-21.48,92,100,0.91,RU,1673060878
456,cedar city,37.6775,-113.0619,0.54,80,0,2.57,US,1673060878
457,anyksciai,55.5256,25.1026,-11.89,83,100,5.15,LT,1673060879
458,acapulco,16.8634,-99.8901,27.9,47,0,3.09,MX,1673060879
459,konza,-1.7426,37.1294,12.9,85,4,2.02,KE,1673060880
460,general higinio morinigo,-25.95,-55.9167,18.63,57,0,1.38,PY,1673060880
461,lapa,-25.7697,-49.7158,11.7,96,38,2.14,BR,1673060881
462,beaverlodge,55.2166,-119.4361,-7.29,89,23,1.84,CA,1673060881
463,north bend,43.4065,-124.2243,13.47,90,100,3.6,US,1673060882
464,yabrud,33.9674,36.6574,2.93,83,31,2.08,SY,1673060882
465,lethem,3.3803,-59.7968,23.58,87,92,3.17,GY,1673060883
466,samarai,-10.6167,150.6667,28.68,72,99,1.53,PG,1673060883
467,belyy yar,53.6039,91.3903,-12.06,79,0,1.0,RU,1673060884
468,tulum,20.2167,-87.4667,22.24,80,0,3.05,MX,1673060884
469,moscow,55.7522,37.6156,-23.9,99,33,1.72,RU,1673060600
470,ati,13.2154,18.3353,15.98,28,54,4.68,TD,1673060885
471,ocos,14.5094,-92.1933,23.1,71,5,1.65,GT,1673060886
472,boralday,43.3578,76.8594,-0.08,93,100,2.0,KZ,1673060886
473,goderich,43.7501,-81.7165,2.17,86,100,6.07,CA,1673060887
474,ahipara,-35.1667,173.1667,22.07,76,97,3.69,NZ,1673060887
475,salalah,17.0151,54.0924,22.05,78,40,2.57,OM,1673060888
476,alpena,45.0617,-83.4327,-0.46,89,100,2.24,US,1673060889
477,cabra,37.4725,-4.4421,7.38,88,2,0.93,ES,1673060889
478,san rafael,-34.6177,-68.3301,28.33,21,96,3.26,AR,1673060890
479,sereflikochisar,38.9393,33.5386,2.07,85,13,0.78,TR,1673060890
480,tual,-5.6667,132.75,28.6,76,100,7.04,ID,1673060891
481,suslovo,56.2167,88.1167,-23.62,100,82,1.48,RU,1673060892
482,el cope,8.6167,-80.6,18.34,90,11,2.74,PA,1673060892
483,te anau,-45.4167,167.7167,17.64,62,84,1.55,NZ,1673060893
484,gdov,58.7406,27.8122,-15.48,94,47,2.31,RU,1673060893
485,pevek,69.7008,170.3133,-31.8,97,96,0.22,RU,1673060894
486,komsomolskiy,40.4272,71.7189,-0.6,93,20,1.03,UZ,1673060894
487,bereda,43.2686,-7.5406,10.79,83,100,5.63,ES,1673060895
488,abha,18.2164,42.5053,10.14,87,20,3.6,SA,1673060895
489,la asuncion,11.0333,-63.8628,24.56,85,3,6.0,VE,1673060896
490,bay roberts,47.5999,-53.2648,-1.48,84,95,3.58,CA,1673060897
491,slavyanka,42.8633,131.3847,-4.86,70,94,2.98,RU,1673060897
492,pineville,31.3224,-92.4343,15.96,74,0,4.63,US,1673060898
493,blyth,55.1271,-1.5086,11.93,92,100,5.14,GB,1673060898
494,miraflores,19.2167,-98.8083,16.13,66,17,1.25,MX,1673060899
495,izyum,49.2088,37.2485,-10.32,56,0,4.91,UA,1673060900
496,waren,53.5167,12.6833,2.79,95,96,3.04,DE,1673060901
497,nelson bay,-32.7167,152.15,22.03,94,70,5.36,AU,1673060901
498,kloulklubed,7.0419,134.2556,27.28,73,94,7.65,PW,1673060902
499,slave lake,55.2834,-114.769,-4.41,87,95,1.23,CA,1673060902
500,santa isabel do rio negro,-0.4139,-65.0192,22.84,98,100,0.9,BR,1673060903
501,amapa,1.0,-52.0,21.44,98,78,1.04,BR,1673060904
502,ulfborg,56.2673,8.3217,7.72,96,99,4.81,DK,1673060904
503,rocha,-34.4833,-54.3333,17.13,95,0,3.36,UY,1673060905
504,qaqortoq,60.7167,-46.0333,-11.95,62,100,2.65,GL,1673060905
505,barranca,-10.75,-77.7667,20.83,75,100,2.7,PE,1673060906
506,goma,-1.6792,29.2228,15.92,76,51,1.54,CD,1673060906
507,moranbah,-22.0016,148.0466,31.0,43,73,6.48,AU,1673060907
508,prince rupert,54.3161,-130.3201,4.4,89,100,4.46,CA,1673060907
509,dickson,36.077,-87.3878,6.13,66,75,0.0,US,1673060700
510,hirara,24.8,125.2833,18.77,58,79,10.47,JP,1673060908
511,la union,-5.4,-80.75,20.81,73,100,5.32,PE,1673060909
512,seoul,37.5683,126.9778,3.76,70,75,4.12,KR,1673060118
513,liverpool,53.4106,-2.9779,12.3,92,40,8.23,GB,1673060840
514,kieta,-6.2167,155.6333,28.82,75,100,3.11,PG,1673060910
515,tenkodogo,11.78,-0.3697,22.24,25,3,3.95,BF,1673060910
516,nowa deba,50.4297,21.7508,8.55,92,100,3.17,PL,1673060911
517,san vicente,-26.6167,-54.1333,16.28,46,0,1.63,AR,1673060911
518,kralendijk,12.15,-68.2667,25.99,83,75,6.17,BQ,1673060912
519,rundu,-17.9333,19.7667,21.44,69,99,2.81,NA,1673060912
520,inuvik,68.3499,-133.7218,-18.58,84,100,2.57,CA,1673060913
521,gumdag,39.2061,54.5906,6.26,65,0,3.02,TM,1673060913
522,coos bay,43.3665,-124.2179,13.51,90,100,3.6,US,1673060914
523,yar-sale,66.8333,70.8333,-36.91,100,100,2.64,RU,1673060915
524,bilecik,40.0,30.1667,-4.62,88,10,1.51,TR,1673060915
525,peace river,56.2501,-117.286,-4.78,89,20,3.8,CA,1673060916
526,ewa beach,21.3156,-158.0072,27.97,63,0,4.12,US,1673060916
527,tarakan,3.3,117.6333,24.72,94,100,1.03,ID,1673060917
528,lafiagi,8.8667,5.4167,22.99,30,19,0.87,NG,1673060917
529,la libertad,-2.2333,-80.9,22.97,76,100,3.52,EC,1673060918
530,nakusp,50.2499,-117.8023,1.83,96,95,1.04,CA,1673060918
531,skjervoy,70.0311,20.9714,-12.0,56,0,11.29,NO,1673060698
532,kysyl-syr,63.8986,122.7617,-35.28,97,100,3.14,RU,1673060919
533,muros,42.7762,-9.0603,13.94,92,100,13.47,ES,1673060919
534,changzhou,31.7833,119.9667,12.29,28,0,1.09,CN,1673060537
535,caravelas,-17.7125,-39.2481,25.03,88,93,3.83,BR,1673060920
536,abonnema,4.7084,6.7931,24.73,86,42,2.08,NG,1673060921
537,humaita,-7.5061,-63.0208,21.6,98,99,0.42,BR,1673060921
538,bubaque,11.2833,-15.8333,25.6,62,88,5.71,GW,1673060922
539,turinskaya sloboda,57.6232,64.3858,-10.38,95,100,3.54,RU,1673060922
540,ierapetra,35.01,25.7353,13.97,72,3,1.79,GR,1673060923
541,salina,38.8403,-97.6114,4.07,68,0,3.09,US,1673060923
542,artyom,40.4723,50.333,6.08,87,97,6.79,AZ,1673060924
543,kurilsk,45.2333,147.8833,-2.25,57,98,2.27,RU,1673060924
544,pingxiang,27.6167,113.85,16.09,46,0,1.14,CN,1673060925
545,varnamo,57.186,14.04,1.14,1,100,0.45,SE,1673060925
546,padang,-0.9492,100.3543,27.03,71,87,1.48,ID,1673060779
547,muisne,0.6,-80.0333,23.89,82,100,2.21,EC,1673060926
548,chapais,49.7834,-74.8492,-9.12,96,100,2.83,CA,1673060927
549,luanda,-8.8368,13.2343,25.03,86,100,2.77,AO,1673060928
550,oistins,13.0667,-59.5333,26.05,78,40,8.75,BB,1673060928
551,joao pessoa,-7.115,-34.8631,25.13,83,75,1.54,BR,1673060929
552,bud,39.447,-86.1758,0.46,90,74,2.21,US,1673060930
553,dossor,47.5272,52.9811,2.83,94,100,5.39,KZ,1673060930
554,buchanan,5.8808,-10.0467,24.85,85,26,1.78,LR,1673060931
555,clyde river,70.4692,-68.5914,-32.04,88,11,0.81,CA,1673060931
556,longavi,-35.9667,-71.6833,15.97,70,0,2.03,CL,1673060932
557,labytnangi,66.6572,66.4183,-34.09,98,98,2.99,RU,1673060932
558,garowe,8.4054,48.4845,18.69,86,3,3.2,SO,1673060933
559,bronnoysund,65.4625,12.1997,-1.0,64,100,9.39,NO,1673060934
560,lunglei,22.8833,92.7333,17.87,51,0,0.43,IN,1673060934
561,cueto,20.6439,-75.9356,22.29,91,13,2.6,CU,1673060935
562,maues,-3.3836,-57.7186,22.71,97,98,1.27,BR,1673060936
