City_ID,City,Lat,Lng,Max Temp,Humidity,Cloudiness,Wind Speed,Country,Date
0,shakawe,-18.3667,21.85,26.61,50,15,2.65,BW,1673507475
1,wanning,18.8003,110.3967,25.91,75,18,3.27,CN,1673507475
2,torbay,47.6666,-52.7314,-7.5,87,34,0.45,CA,1673507476
3,yellowknife,62.456,-114.3525,-15.8,84,100,4.92,CA,1673507279
4,thompson,55.7435,-97.8558,-20.79,99,15,1.86,CA,1673507476
5,deputatskiy,69.3,139.9,-43.36,96,45,2.3,RU,1673507477
6,jamestown,42.097,-79.2353,3.64,61,100,5.14,US,1673507477
7,mataura,-46.1927,168.8643,15.92,58,100,2.43,NZ,1673507477
8,sitka,57.0531,-135.33,3.94,87,0,3.09,US,1673507478
9,qarqin,37.4185,66.0436,-8.88,58,98,2.44,AF,1673507478
10,ponta do sol,32.6667,-17.1,16.35,72,4,3.13,PT,1673507478
11,albany,42.6001,-73.9662,0.37,73,97,0.45,US,1673507478
12,nome,64.5011,-165.4064,-9.94,92,100,2.57,US,1673507479
13,ushuaia,-54.8,-68.3,6.81,87,75,1.03,AR,1673507479
14,alto araguaia,-17.3147,-53.2153,19.43,97,100,2.3,BR,1673507479
15,chokurdakh,70.6333,147.9167,-31.75,98,100,2.17,RU,1673507479
16,ladnun,27.65,74.3833,23.65,22,0,2.24,IN,1673507481
17,atuona,-9.8,-139.0333,25.63,74,6,5.71,PF,1673507482
18,cidreira,-30.1811,-50.2056,21.54,84,0,4.6,BR,1673507482
19,sovik,65.9333,12.4667,5.23,78,75,4.63,NO,1673507482
20,omsukchan,62.5333,155.8,-30.79,100,99,1.49,RU,1673507482
21,praia,14.9215,-23.5087,21.3,78,0,8.75,CV,1673507483
22,saraland,30.8207,-88.0706,20.17,86,100,3.5,US,1673507483
23,atar,20.5169,-13.0499,16.54,14,0,3.7,MR,1673507484
24,anadyr,64.75,177.4833,-23.62,76,40,4.0,RU,1673507484
25,bluff,-46.6,168.3333,13.24,69,44,4.18,NZ,1673507484
26,tabou,4.423,-7.3528,25.19,83,3,0.27,CI,1673507485
27,san cristobal,7.7669,-72.225,17.74,91,69,0.29,VE,1673507485
28,provideniya,64.3833,-173.3,-14.19,94,100,2.92,RU,1673507485
29,puerto ayora,-0.7393,-90.3518,22.53,96,93,2.16,EC,1673507485
30,barrow,71.2906,-156.7887,-22.99,70,0,13.38,US,1673507334
31,vaini,-21.2,-175.2,27.09,94,40,2.06,TO,1673507486
32,paamiut,61.994,-49.6678,-13.04,82,52,5.34,GL,1673507486
33,salalah,17.0151,54.0924,26.28,43,0,6.93,OM,1673507487
34,natal,-5.795,-35.2094,23.36,94,40,1.54,BR,1673507487
35,gaoual,11.75,-13.2,19.03,30,31,1.07,GN,1673507487
36,geraldton,-28.7667,114.6,26.23,53,0,7.2,AU,1673507488
37,avarua,-21.2078,-159.775,25.03,78,20,2.06,CK,1673507488
38,punta arenas,-53.15,-70.9167,9.06,76,0,2.06,CL,1673507489
39,castro,-24.7911,-50.0119,17.01,93,100,1.01,BR,1673507490
40,northam,51.0333,-4.2167,11.33,98,100,13.0,GB,1673507490
41,cuamba,-14.8031,36.5372,20.4,98,100,0.83,MZ,1673507490
42,zarichne,51.8126,26.129,-2.46,92,27,4.22,UA,1673507491
43,mar del plata,-38.0023,-57.5575,16.04,85,0,3.13,AR,1673507491
44,mtimbira,-8.7833,36.35,28.4,66,53,0.44,TZ,1673507491
45,saldanha,-33.0117,17.9442,19.58,78,100,4.57,ZA,1673507492
46,seoul,37.5683,126.9778,11.66,25,0,1.48,KR,1673507110
47,rikitea,-23.1203,-134.9692,25.97,80,59,8.05,PF,1673507492
48,olinda,-8.0089,-34.8553,26.85,69,40,3.09,BR,1673507493
49,karratha,-20.7377,116.8463,36.37,33,5,7.91,AU,1673507493
50,pemangkat,1.1667,108.9667,27.74,72,100,2.6,ID,1673507494
51,dikson,73.5069,80.5464,-29.58,93,100,3.35,RU,1673507494
52,hobart,-42.8794,147.3294,24.04,55,20,6.17,AU,1673507413
53,palimbang,6.2106,124.1894,26.71,88,100,3.88,PH,1673507495
54,butaritari,3.0707,172.7902,27.39,79,100,7.52,KI,1673507495
55,viedma,-40.8135,-62.9967,13.52,63,1,4.48,AR,1673507496
56,balabac,7.9868,117.0645,27.79,70,100,2.03,PH,1673507496
57,sept-iles,50.2001,-66.3821,-18.56,86,3,4.16,CA,1673507496
58,hals,56.9961,10.3081,3.98,94,87,5.6,DK,1673507497
59,handan,36.6006,114.4678,5.45,57,100,2.55,CN,1673507429
60,boqueirao,-7.5,-36.1333,21.26,89,26,3.04,BR,1673507497
61,caravelas,-17.7125,-39.2481,23.69,89,100,2.65,BR,1673507498
62,cairns,-16.9167,145.7667,30.04,74,100,2.06,AU,1673507333
63,husavik,66.0449,-17.3389,-2.78,84,99,2.44,IS,1673507499
64,qaanaaq,77.484,-69.3632,-21.85,98,100,0.7,GL,1673507499
65,hvide sande,56.0045,8.1294,6.16,93,75,5.66,DK,1673507499
66,hermanus,-34.4187,19.2345,23.78,71,29,2.15,ZA,1673507500
67,nhulunbuy,-12.2333,136.7667,32.34,58,96,7.72,AU,1673507500
68,yacuiba,-22.038,-63.6797,20.11,92,89,1.16,BO,1673507501
69,high level,58.5169,-117.136,-7.94,100,100,3.6,CA,1673507501
70,kungurtug,50.5994,97.5228,-22.84,73,100,1.39,RU,1673507502
71,kruisfontein,-34.0033,24.7314,25.49,87,99,4.73,ZA,1673507502
72,urubicha,-15.3833,-62.95,22.08,98,94,1.45,BO,1673507502
73,new norfolk,-42.7826,147.0587,23.84,41,17,0.89,AU,1673507503
74,isla vista,34.4133,-119.861,12.47,88,0,0.0,US,1673507503
75,hay river,60.8156,-115.7999,-13.28,96,100,2.35,CA,1673507504
76,inhambane,-23.865,35.3833,27.62,71,34,5.98,MZ,1673507505
77,faanui,-16.4833,-151.75,25.76,85,100,9.53,PF,1673507505
78,san carlos,9.6612,-68.5827,23.42,75,54,1.44,VE,1673507506
79,ribeira grande,38.5167,-28.7,17.1,95,100,4.92,PT,1673507506
80,tual,-5.6667,132.75,28.24,73,100,2.08,ID,1673507506
81,portland,45.5234,-122.6762,9.01,91,100,7.72,US,1673507507
82,kartuzy,54.3342,18.1974,5.73,93,75,5.66,PL,1673507507
83,busselton,-33.65,115.3333,26.3,47,0,7.24,AU,1673507508
84,klaksvik,62.2266,-6.589,2.51,82,100,7.44,FO,1673507509
85,dudinka,69.4058,86.1778,-30.84,97,100,4.91,RU,1673507509
86,komsomolskiy,40.4272,71.7189,-10.6,67,40,1.03,UZ,1673507509
87,almaznyy,48.0448,40.045,-8.5,90,100,7.98,RU,1673507510
88,tuensang,26.2833,94.8333,21.68,35,13,1.35,IN,1673507510
89,cape town,-33.9258,18.4232,22.84,80,40,6.69,ZA,1673507232
90,asau,46.4333,26.4,-2.49,90,100,0.75,RO,1673507511
91,cherskiy,68.75,161.3,-32.48,98,100,0.81,RU,1673507511
92,saint-philippe,-21.3585,55.7679,29.77,78,69,6.01,RE,1673507512
93,kawalu,-7.3817,108.2082,28.29,65,100,2.59,ID,1673507512
94,kabanjahe,3.1001,98.4908,22.22,79,99,0.42,ID,1673507512
95,astaneh-ye ashrafiyeh,37.2596,49.9444,4.96,90,100,0.84,IR,1673507513
96,nokaneng,-19.6667,22.2667,27.26,28,30,5.4,BW,1673507513
97,puerto del rosario,28.5004,-13.8627,19.86,73,40,9.77,ES,1673507514
98,mareeba,-17.0,145.4333,27.47,75,68,3.71,AU,1673507514
99,catamarca,-28.4696,-65.7852,24.48,69,1,3.37,AR,1673507514
100,inuvik,68.3499,-133.7218,-22.58,77,100,3.6,CA,1673507515
101,batalha,-9.6778,-37.1247,22.54,83,77,2.23,BR,1673507515
102,khatanga,71.9667,102.5,-41.9,100,100,2.13,RU,1673507515
103,hirtshals,57.5881,9.9592,5.46,93,33,7.59,DK,1673507515
104,avera,33.194,-82.5271,15.03,84,100,4.18,US,1673507516
105,svetlaya,46.5389,138.3297,-0.34,77,5,2.39,RU,1673507516
106,narsaq,60.9167,-46.05,-11.24,71,100,2.56,GL,1673507517
107,carnarvon,-24.8667,113.6333,26.57,59,0,8.79,AU,1673507517
108,tuktoyaktuk,69.4541,-133.0374,-26.63,93,100,4.25,CA,1673507518
109,iquitos,-3.7481,-73.2472,24.02,88,100,1.03,PE,1673507518
110,drensteinfurt,51.7953,7.7382,8.88,87,100,12.14,DE,1673507518
111,tecolutla,20.4833,-97.0167,21.25,91,10,2.09,MX,1673507519
112,clyde river,70.4692,-68.5914,-13.87,66,100,8.75,CA,1673507520
113,thunder bay,48.4001,-89.3168,-6.44,96,96,2.22,CA,1673507520
114,kattivakkam,13.2167,80.3167,29.05,58,12,3.96,IN,1673507521
115,beaver dam,43.4578,-88.8373,1.51,66,100,2.06,US,1673507522
116,wanaka,-44.7,169.15,21.73,47,6,4.02,NZ,1673507420
117,carinhanha,-14.3047,-43.765,20.67,95,100,0.54,BR,1673507522
118,trincomalee,8.5711,81.2335,25.68,63,33,4.99,LK,1673507407
119,jurm,36.8648,70.8342,-11.23,90,100,2.09,AF,1673507523
120,baft,29.234,56.6057,1.47,39,0,1.99,IR,1673507523
121,stephenville,32.2207,-98.2023,17.53,18,0,5.81,US,1673507524
122,port alfred,-33.5906,26.891,24.54,89,98,1.79,ZA,1673507525
123,kahului,20.8947,-156.47,22.69,75,40,6.17,US,1673507525
124,nanortalik,60.1432,-45.2371,-3.37,94,100,2.05,GL,1673507525
125,darhan,49.4867,105.9228,-18.47,74,100,6.44,MN,1673507526
126,meulaboh,4.1363,96.1285,28.41,70,100,3.04,ID,1673507526
127,bredasdorp,-34.5322,20.0403,24.71,71,100,1.82,ZA,1673507526
128,bentiu,9.2333,29.8333,26.03,16,10,4.17,SS,1673507527
129,payo,-3.7508,103.6372,32.91,51,54,1.37,ID,1673507528
130,broken hill,-31.95,141.4333,34.66,16,99,2.29,AU,1673507275
131,san patricio,28.017,-97.5169,21.02,91,0,3.32,US,1673507529
132,fairbanks,64.8378,-147.7164,-18.02,81,20,2.57,US,1673507529
133,sinnamary,5.3833,-52.95,23.85,90,96,3.86,GF,1673507529
134,hithadhoo,-0.6,73.0833,26.54,77,23,4.69,MV,1673507530
135,byron bay,-28.65,153.6167,25.95,68,0,4.22,AU,1673507530
136,san policarpo,12.1791,125.5072,25.82,88,100,8.16,PH,1673507530
137,airai,-8.9266,125.4092,19.12,82,100,1.51,TL,1673507531
138,constitucion,-35.3333,-72.4167,13.1,58,12,3.16,CL,1673507531
139,akureyri,65.6835,-18.0878,-6.03,97,100,0.56,IS,1673507531
140,hilo,19.7297,-155.09,21.81,78,40,2.57,US,1673507532
141,tasiilaq,65.6145,-37.6368,-12.91,62,100,1.79,GL,1673507532
142,roebourne,-20.7833,117.1333,36.02,35,5,7.83,AU,1673507533
143,buta,2.7858,24.73,23.93,53,100,0.1,CD,1673507533
144,kapaa,22.0752,-159.319,19.99,72,0,2.06,US,1673507533
145,kodiak,57.79,-152.4072,0.73,93,100,2.06,US,1673507534
146,kaitangata,-46.2817,169.8464,13.03,69,93,2.52,NZ,1673507534
147,victoria,22.2855,114.1577,23.44,85,96,5.36,HK,1673507285
148,russkiy aktash,55.0384,52.1214,-14.33,79,100,7.54,RU,1673507535
149,guerrero negro,27.9769,-114.0611,15.21,74,13,1.22,MX,1673507536
150,general roca,-39.0333,-67.5833,15.35,41,10,3.91,AR,1673507536
151,tevaitoa,-16.7833,-151.5,25.66,86,100,9.42,PF,1673507537
152,east london,-33.0153,27.9116,27.03,76,18,3.88,ZA,1673507405
153,vung tau,10.346,107.0843,26.39,77,49,6.01,VN,1673507398
154,namatanai,-3.6667,152.4333,27.77,75,100,2.86,PG,1673507538
155,ucluelet,48.9329,-125.5528,8.94,86,100,0.89,CA,1673507538
156,hobyo,5.3505,48.5268,26.98,62,24,10.47,SO,1673507539
157,horki,54.2861,30.9842,-8.03,88,83,6.84,BY,1673507539
158,riberalta,-10.9833,-66.1,22.26,98,100,0.83,BO,1673507540
159,goma,-1.6792,29.2228,19.8,75,100,0.75,CD,1673507540
160,grand gaube,-20.0064,57.6608,28.54,59,23,2.68,MU,1673507542
161,north branch,45.5113,-92.9802,0.2,97,100,0.89,US,1673507542
162,lorengau,-2.0226,147.2712,27.8,80,100,3.29,PG,1673507542
163,tahe,52.3333,124.7333,-14.27,94,100,1.4,CN,1673507543
164,medea,36.2642,2.7539,7.55,95,96,0.39,DZ,1673507543
165,coruripe,-10.1256,-36.1756,24.69,77,90,4.09,BR,1673507544
166,coquimbo,-29.9533,-71.3436,16.85,100,100,0.51,CL,1673507544
167,green river,41.5286,-109.4662,-5.78,95,10,1.47,US,1673507545
168,waingapu,-9.6567,120.2641,29.56,64,59,4.19,ID,1673507545
169,cap malheureux,-19.9842,57.6142,28.59,59,30,2.68,MU,1673507545
170,hamilton,39.1834,-84.5333,12.64,96,100,3.6,US,1673507402
171,jacareacanga,-6.2222,-57.7528,21.79,99,100,1.1,BR,1673507546
172,marawi,7.9986,124.2928,20.42,99,100,2.05,PH,1673507546
173,kloulklubed,7.0419,134.2556,26.28,77,100,6.85,PW,1673507546
174,kamaishi,39.2667,141.8833,8.72,72,35,2.59,JP,1673507280
175,mayor pablo lagerenza,-19.9309,-60.7718,23.3,85,1,1.43,PY,1673507547
176,sokna,60.24,9.9235,1.19,99,89,0.98,NO,1673507547
177,souillac,-20.5167,57.5167,28.21,65,40,6.17,MU,1673507547
178,arraial do cabo,-22.9661,-42.0278,23.42,96,100,6.66,BR,1673507548
179,namibe,-15.1961,12.1522,22.18,78,94,2.08,AO,1673507548
180,roald,62.5833,6.1333,7.09,81,75,5.66,NO,1673507548
181,aklavik,68.2191,-135.0107,-29.51,98,96,0.41,CA,1673507549
182,talara,-4.5772,-81.2719,20.88,80,100,5.47,PE,1673507549
183,pandan,14.0453,124.1694,25.84,85,100,6.68,PH,1673507549
184,pochutla,15.7432,-96.4661,22.12,77,0,1.45,MX,1673507549
185,sola,-13.8833,167.55,26.41,82,100,5.33,VU,1673507550
186,ilulissat,69.2167,-51.1,-30.56,79,20,2.78,GL,1673507550
187,brae,60.3964,-1.353,6.14,81,100,2.22,GB,1673507550
188,saint george,37.1041,-113.5841,4.33,81,0,2.06,US,1673507551
189,upernavik,72.7868,-56.1549,-20.88,90,100,3.72,GL,1673507551
190,jiangyou,31.7667,104.7167,15.37,51,2,2.05,CN,1673507552
191,kamina,-8.7386,24.9906,17.3,97,100,0.08,CD,1673507553
192,esperance,-33.8667,121.9,21.3,69,24,6.31,AU,1673507553
193,mabaruma,8.2,-59.7833,21.5,99,99,0.89,GY,1673507553
194,usinsk,65.9939,57.5281,-10.84,95,98,5.74,RU,1673507554
195,jinchang,38.4953,102.1739,-2.94,45,92,11.03,CN,1673507554
196,saint-augustin,51.226,-58.6502,-18.2,87,20,4.07,CA,1673507555
197,howard springs,-12.497,131.047,32.21,75,100,2.73,AU,1673507556
198,saint anthony,45.0205,-93.218,0.69,91,100,6.17,US,1673507556
199,ahipara,-35.1667,173.1667,19.3,79,21,2.9,NZ,1673507557
200,heihe,50.2441,127.4902,-13.68,95,100,1.21,CN,1673507557
201,cabo san lucas,22.8909,-109.9124,20.84,61,0,0.78,MX,1673507557
202,alindao,5.0267,21.2088,26.1,27,100,2.52,CF,1673507557
203,taltal,-25.4,-70.4833,18.84,85,31,0.47,CL,1673507558
204,codrington,-38.2667,141.9667,20.52,66,11,5.77,AU,1673507559
205,fortuna,40.5982,-124.1573,14.19,93,100,11.83,US,1673507559
206,port moresby,-9.4431,147.1797,26.36,82,100,1.0,PG,1673507560
207,zhangjiakou,40.81,114.8794,0.81,53,100,1.38,CN,1673507560
208,fukue,32.6881,128.8419,15.2,94,75,1.54,JP,1673507560
209,haines junction,60.7522,-137.5108,-11.18,97,100,0.53,CA,1673507561
210,talnakh,69.4865,88.3972,-33.02,97,100,3.62,RU,1673507562
211,taoudenni,22.6783,-3.9836,15.49,52,2,4.57,ML,1673507563
212,tezu,27.9167,96.1667,25.08,25,0,1.75,IN,1673507564
213,tecoanapa,16.5167,-98.75,22.27,86,0,1.83,MX,1673507564
214,vao,-22.6667,167.4833,24.71,66,0,2.98,NC,1673507564
215,yanam,16.7333,82.2167,28.93,44,4,1.4,IN,1673507565
216,sao jose da coroa grande,-8.8978,-35.1478,25.0,78,60,3.87,BR,1673507565
217,torit,4.4133,32.5678,30.15,26,16,2.46,SS,1673507566
218,udaipura,23.0833,78.5,24.26,30,0,2.43,IN,1673507566
219,suntar,62.1444,117.6319,-36.11,99,100,1.15,RU,1673507568
220,chuy,-33.6971,-53.4616,18.26,91,75,1.6,UY,1673507568
221,pacific grove,36.6177,-121.9166,14.16,87,40,1.54,US,1673507568
222,snezhnogorsk,69.1933,33.2531,-2.12,94,100,6.43,RU,1673507568
223,lobito,-12.3481,13.5456,24.32,74,100,1.31,AO,1673507569
224,manggar,-2.8833,108.2667,29.21,66,96,3.52,ID,1673507569
225,saskylakh,71.9167,114.0833,-37.76,97,100,2.53,RU,1673507569
226,matveyevka,52.15,56.1833,-22.29,93,100,1.52,RU,1673507570
227,victor harbor,-35.5667,138.6167,27.6,75,0,0.45,AU,1673507570
228,walvis bay,-22.9575,14.5053,21.16,73,100,4.43,NA,1673507571
229,port blair,11.6667,92.75,29.02,58,20,5.14,IN,1673507434
230,maceio,-9.6658,-35.7353,22.69,94,0,1.54,BR,1673507571
231,dhidhdhoo,6.8833,73.1,26.12,67,100,3.92,MV,1673507572
232,ibb,13.9667,44.1833,17.65,46,99,1.38,YE,1673507572
233,vila franca do campo,37.7167,-25.4333,17.23,94,93,4.86,PT,1673507572
234,sonkovo,57.7782,37.1571,-9.44,87,100,6.39,RU,1673507573
235,bambous virieux,-20.3428,57.7575,28.45,65,40,6.17,MU,1673507574
236,necochea,-38.5473,-58.7368,14.53,85,0,2.96,AR,1673507574
237,sur,22.5667,59.5289,21.75,59,27,9.47,OM,1673507574
238,bernay,49.1667,0.6667,11.02,84,100,6.71,FR,1673507575
239,wurzen,51.3667,12.7333,9.3,77,100,9.21,DE,1673507575
240,harper,4.375,-7.7169,25.25,84,11,1.28,LR,1673507576
241,polovinnoye,54.7914,65.9864,-12.7,76,100,8.13,RU,1673507576
242,kutum,14.2,24.6667,14.05,29,32,3.29,SD,1673507576
243,luderitz,-26.6481,15.1594,19.65,71,88,4.07,NA,1673507577
244,los llanos de aridane,28.6585,-17.9182,16.86,64,75,8.75,ES,1673507578
245,beringovskiy,63.05,179.3167,-19.79,97,100,4.24,RU,1673507578
246,tiarei,-17.5333,-149.3333,25.0,88,100,6.15,PF,1673507578
247,varkaus,62.3153,27.873,-1.5,97,100,5.14,FI,1673507579
248,sungaipenuh,-2.0833,101.3833,25.79,59,100,2.04,ID,1673507580
249,ostrovnoy,68.0531,39.5131,-1.77,87,100,10.72,RU,1673507581
250,gorham,43.6795,-70.4442,-3.75,72,100,2.57,US,1673507581
251,rio gallegos,-51.6226,-69.2181,7.03,76,0,2.57,AR,1673507581
252,bonavista,48.6499,-53.1147,-6.72,72,72,7.34,CA,1673507582
253,lebork,54.5392,17.7501,6.93,94,100,7.31,PL,1673507582
254,la ronge,55.1001,-105.2842,-11.88,85,100,1.03,CA,1673507582
255,hokitika,-42.7167,170.9667,20.12,72,4,2.23,NZ,1673507583
256,palora,-1.7,-77.9333,17.42,93,98,0.88,EC,1673507583
257,kavieng,-2.5744,150.7967,28.14,76,100,2.79,PG,1673507583
258,evora,38.5667,-7.9,6.21,82,97,2.41,PT,1673507584
259,tamworth,52.634,-1.6959,11.12,89,93,8.67,GB,1673507584
260,lagoa,39.05,-27.9833,16.5,90,100,11.23,PT,1673507584
261,naze,28.3667,129.4833,18.27,65,56,7.66,JP,1673507585
262,lompoc,34.6391,-120.4579,11.99,90,0,4.12,US,1673507585
263,port keats,-14.25,129.55,29.79,71,99,5.42,AU,1673507586
264,fare,-16.7,-151.0167,25.96,78,100,7.16,PF,1673507586
265,diffa,13.3154,12.6113,16.82,34,8,5.06,NE,1673507587
266,ramotswa,-24.8716,25.8699,27.01,30,3,2.98,BW,1673507588
267,hamza,40.4264,71.4956,-10.03,63,92,2.05,UZ,1673507588
268,providencia,28.7167,-111.5833,14.82,58,95,4.91,MX,1673507588
269,kitgum,3.2783,32.8867,25.38,41,99,1.69,UG,1673507589
270,pedernales,18.0384,-71.744,23.76,76,0,1.43,DO,1673507589
271,orotukan,62.2667,151.7,-36.75,94,92,1.06,RU,1673507590
272,boden,65.8252,21.6886,1.0,93,100,4.66,SE,1673507590
273,basoko,1.2391,23.616,25.09,71,100,0.98,CD,1673507590
274,carahue,-38.7,-73.1667,7.68,97,7,0.32,CL,1673507591
275,chernyshevskiy,63.0128,112.4714,-40.44,95,100,3.06,RU,1673507592
276,wewak,-3.5534,143.6268,28.58,73,100,2.89,PG,1673507592
277,peniche,39.3558,-9.3811,9.69,94,100,3.86,PT,1673507593
278,lasa,46.6166,10.7002,-2.21,67,100,1.94,IT,1673507593
279,waipawa,-41.4122,175.5153,13.45,77,4,4.03,NZ,1673507593
280,quelimane,-17.8786,36.8883,27.18,77,100,1.44,MZ,1673507593
281,jiayuguan,39.8167,98.3,-5.89,38,100,7.32,CN,1673507594
282,dombarovskiy,50.7587,59.5386,-18.85,89,67,3.3,RU,1673507594
283,comodoro rivadavia,-45.8667,-67.5,14.92,63,0,8.23,AR,1673507595
284,san rafael,-34.6177,-68.3301,18.5,39,89,0.98,AR,1673507595
285,hearst,49.6835,-83.6665,-8.59,98,100,0.45,CA,1673507596
286,bilibino,68.0546,166.4372,-26.4,83,82,2.28,RU,1673507596
287,miri,4.4148,114.0089,28.32,70,100,2.73,MY,1673507596
288,bethel,41.3712,-73.414,2.09,71,100,2.06,US,1673507597
289,srednekolymsk,67.45,153.6833,-36.93,99,100,1.98,RU,1673507597
290,bajil,15.0584,43.2851,26.03,67,29,2.13,YE,1673507597
291,taree,-31.9,152.4667,27.26,58,2,3.73,AU,1673507597
292,bengkulu,-3.8004,102.2655,28.24,69,84,2.39,ID,1673507598
293,georgetown,5.4112,100.3354,31.96,62,20,1.54,MY,1673507489
294,arlit,18.7369,7.3853,14.19,21,0,2.46,NE,1673507599
295,haukipudas,65.1765,25.3523,3.03,91,100,7.86,FI,1673507466
296,coahuayana,18.7333,-103.6833,20.18,77,0,1.95,MX,1673507599
297,witu,-2.3889,40.4382,29.09,54,17,3.52,KE,1673507600
298,carutapera,-1.195,-46.02,23.73,94,47,2.09,BR,1673507600
299,nikolskoye,59.7035,30.7861,-4.06,90,100,5.84,RU,1673507601
300,cayenne,4.9333,-52.3333,23.02,100,75,1.03,GF,1673507602
301,kaeo,-35.1,173.7833,22.96,67,59,1.86,NZ,1673507602
302,ancud,-41.8697,-73.8203,8.83,89,4,1.9,CL,1673507602
303,williamsport,41.2412,-77.0011,4.1,77,100,5.66,US,1673507371
304,dongsheng,39.8161,109.9776,3.0,64,7,3.49,CN,1673507603
305,san ramon de la nueva oran,-23.1322,-64.326,21.15,91,85,1.14,AR,1673507603
306,kemijarvi,66.7131,27.4306,1.34,96,100,7.05,FI,1673507603
307,bendigo,-36.7667,144.2833,35.48,35,0,2.68,AU,1673507604
308,belmonte,-15.8631,-38.8828,24.08,87,100,2.71,BR,1673507604
309,bail hongal,15.8167,74.8667,28.58,16,82,2.49,IN,1673507604
310,todos santos,23.45,-110.2167,17.95,37,0,0.93,MX,1673507604
311,shimoda,34.6667,138.95,12.28,53,72,1.81,JP,1673507605
312,leningradskiy,69.3833,178.4167,-29.57,100,100,2.19,RU,1673507605
313,lebu,-37.6167,-73.65,11.48,87,2,7.7,CL,1673507605
314,honiara,-9.4333,159.95,27.12,86,100,1.54,SB,1673507605
315,yatou,37.15,122.3833,8.18,95,100,4.91,CN,1673507606
316,muzhi,65.3667,64.6667,-15.34,96,100,1.69,RU,1673507607
317,bathsheba,13.2167,-59.5167,24.34,88,75,5.66,BB,1673507607
318,alofi,-19.0595,-169.9187,26.45,81,38,3.84,NU,1673507607
319,moa,20.6569,-74.9403,23.28,83,50,4.24,CU,1673507608
320,elko,41.0002,-115.5012,-0.99,91,100,1.92,US,1673507608
321,camiri,-20.05,-63.5167,20.22,94,76,0.99,BO,1673507608
322,skotterud,59.9828,12.1283,3.62,91,100,3.88,NO,1673507609
323,raga,8.4596,25.678,22.47,22,55,3.69,SS,1673507609
324,mayumba,-3.432,10.6554,23.9,91,100,2.97,GA,1673507610
325,bonthe,7.5264,-12.505,22.69,93,26,1.91,SL,1673507610
326,port hawkesbury,45.6169,-61.3485,-5.23,82,55,4.47,CA,1673507610
327,hami,42.8,93.45,-4.79,21,100,8.68,CN,1673507611
328,naqadeh,36.9553,45.388,-1.84,76,97,2.37,IR,1673507611
329,dingle,10.9995,122.6711,25.18,87,100,5.65,PH,1673507611
330,tupik,54.4253,119.9327,-15.66,94,100,1.28,RU,1673507612
331,buraydah,26.326,43.975,11.17,53,72,4.12,SA,1673507612
332,rockhampton,-23.3833,150.5,23.94,53,75,3.09,AU,1673507612
333,rio grande,-32.035,-52.0986,22.19,72,90,6.46,BR,1673507612
334,adrar,20.5022,-10.0711,13.7,18,0,4.74,MR,1673507613
335,watsa,3.0372,29.5355,25.3,27,28,2.42,CD,1673507613
336,jumla,29.2747,82.1838,11.12,27,95,3.2,NP,1673507614
337,tarakan,3.3,117.6333,28.72,79,75,2.57,ID,1673507615
338,colimes,-1.55,-80.0167,22.42,91,100,1.65,EC,1673507616
339,luanda,-8.8368,13.2343,24.79,80,100,2.65,AO,1673507616
340,gushikawa,26.3544,127.8686,23.57,60,0,6.17,JP,1673507617
341,tera,14.0078,0.7531,16.29,25,0,4.36,NE,1673507617
342,badou,7.5833,0.6,21.18,29,79,1.33,TG,1673507618
343,montgomery,39.1501,-77.1997,4.67,91,100,2.57,US,1673507565
344,yanai,33.9667,132.1167,13.0,82,100,0.75,JP,1673507439
345,port elizabeth,-33.918,25.5701,26.72,95,75,2.06,ZA,1673507619
346,bam,29.106,58.357,4.68,36,0,4.97,IR,1673507619
347,katsuura,35.1333,140.3,11.71,54,80,2.41,JP,1673507609
348,mantua,45.1667,10.7833,2.77,90,100,0.89,IT,1673507621
349,half moon bay,37.4636,-122.4286,15.56,84,100,9.77,US,1673507621
350,general pico,-35.6566,-63.7568,16.99,16,100,2.66,AR,1673507622
351,chkalovskoye,44.8392,133.0436,-2.67,94,6,1.2,RU,1673507622
352,bac lieu,9.285,105.7244,26.99,76,88,4.99,VN,1673507405
353,hit,33.6416,42.8251,10.0,37,100,1.43,IQ,1673507623
354,kommunisticheskiy,61.6789,64.4819,-11.06,93,100,4.13,RU,1673507623
355,san andres,12.5847,-81.7006,26.56,78,63,7.67,CO,1673507623
356,saint-francois,46.4154,3.9054,8.69,76,100,3.09,FR,1673507624
357,minot,48.2325,-101.2963,-7.88,79,100,4.63,US,1673507624
358,santa vitoria do palmar,-33.5189,-53.3681,18.57,90,99,2.87,BR,1673507624
359,mount isa,-20.7333,139.5,35.87,41,94,5.66,AU,1673507624
360,shancheng,34.7953,116.0817,9.5,81,100,1.41,CN,1673507625
361,auki,-8.7676,160.7034,26.76,84,100,3.03,SB,1673507626
362,winnemucca,40.973,-117.7357,3.03,75,100,1.54,US,1673507626
363,matara,5.9485,80.5353,28.01,55,67,1.86,LK,1673507404
364,stornoway,58.2093,-6.3865,-0.02,93,20,0.0,GB,1673507626
365,weligama,5.9667,80.4167,27.38,59,78,2.32,LK,1673507627
366,zhigansk,66.7697,123.3711,-44.07,99,99,3.52,RU,1673507627
367,udupi,13.35,74.75,31.58,33,58,3.3,IN,1673507367
368,celestun,20.8667,-90.4,21.17,83,0,5.79,MX,1673507628
369,mackenzie,55.2999,-123.1698,-7.88,93,100,1.03,CA,1673507628
370,ciudad guayana,8.3533,-62.6528,24.73,91,99,1.52,VE,1673507629
371,albertville,34.2676,-86.2089,16.52,92,100,6.69,US,1673507630
372,banda aceh,5.5577,95.3222,27.54,74,97,2.01,ID,1673507526
373,along,28.1667,94.7667,23.65,29,0,1.05,IN,1673507630
374,batemans bay,-35.7167,150.1833,23.39,72,84,4.13,AU,1673507631
375,bafra,41.5678,35.9069,10.91,45,100,2.24,TR,1673507631
376,grindavik,63.8424,-22.4338,-0.74,80,75,4.63,IS,1673507631
377,cockburn town,21.4612,-71.1419,24.9,72,61,8.07,TC,1673507632
378,port augusta,-32.5,137.7667,34.45,24,4,7.94,AU,1673507632
379,sompeta,18.9333,84.6,27.23,48,5,4.57,IN,1673507633
380,altamont,42.2068,-121.7372,5.22,82,100,7.2,US,1673507633
381,buala,-8.145,159.5921,27.55,80,100,3.14,SB,1673507633
382,honningsvag,70.9821,25.9704,-1.14,69,75,9.77,NO,1673507634
383,nanakuli,21.3906,-158.1547,22.97,68,0,3.6,US,1673507634
384,dargaville,-35.9333,173.8833,18.68,84,81,2.32,NZ,1673507634
385,gat,31.61,34.7642,15.99,31,100,3.72,IL,1673507635
386,saravan,39.7196,45.6483,-5.2,58,0,0.69,AM,1673507339
387,west plains,36.7281,-91.8524,12.46,87,100,8.23,US,1673507635
388,nisia floresta,-6.0911,-35.2086,23.45,84,11,2.25,BR,1673507636
389,poltava,49.5937,34.5407,-8.02,78,49,4.73,UA,1673507636
390,shasta lake,40.6804,-122.3708,8.63,94,100,0.49,US,1673507636
391,shingu,33.7333,135.9833,15.96,42,5,1.84,JP,1673507417
392,nouadhibou,20.931,-17.0347,18.13,59,0,8.06,MR,1673507637
393,bodden town,19.2833,-81.25,26.07,71,0,7.61,KY,1673507637
394,shenjiamen,29.9576,122.298,14.6,95,69,6.96,CN,1673507638
395,longyearbyen,78.2186,15.6401,-4.09,93,40,3.09,SJ,1673507638
396,chiriqui grande,8.95,-82.1167,22.91,89,29,1.31,PA,1673507638
397,martyush,56.4,61.8819,-13.19,69,100,9.86,RU,1673507639
398,sibolga,1.7427,98.7792,29.35,66,80,2.51,ID,1673507639
399,nemuro,43.3236,145.575,1.15,79,4,3.9,JP,1673507639
400,saint-gaudens,43.0833,0.6667,1.12,69,39,2.36,FR,1673507640
401,bukachacha,52.9833,116.9167,-13.26,56,100,4.32,RU,1673507640
402,mnogovershinnyy,53.9353,139.9242,-19.27,97,100,1.36,RU,1673507640
403,pangoa,-12.1167,-73.0,19.64,98,56,1.11,PE,1673507641
404,panzhihua,26.5851,101.7128,20.4,34,1,0.83,CN,1673507641
405,samarai,-10.6167,150.6667,26.75,82,100,4.19,PG,1673507641
406,aguimes,27.9054,-15.4461,17.03,88,75,7.2,ES,1673507642
407,pevek,69.7008,170.3133,-31.17,98,30,1.46,RU,1673507642
408,sao filipe,14.8961,-24.4956,23.44,62,0,5.99,CV,1673507643
409,ilo,-17.6394,-71.3375,20.28,81,33,2.03,PE,1673507643
410,santa rosa,14.3122,121.1114,30.99,67,100,5.3,PH,1673507630
411,concepcion del oro,24.6333,-101.4167,9.39,28,0,0.27,MX,1673507643
412,pierre,44.3683,-100.351,-5.49,86,100,7.72,US,1673507644
413,sabinopolis,-18.6661,-43.0839,19.07,99,100,0.29,BR,1673507644
414,westport,41.1415,-73.3579,3.75,76,100,5.14,US,1673507644
415,boueni,-12.9025,45.0761,30.99,70,55,1.71,YT,1673507644
416,mahebourg,-20.4081,57.7,28.47,65,40,6.17,MU,1673507645
417,mataram,-8.5833,116.1167,29.45,67,96,4.9,ID,1673507442
418,korla,41.7597,86.1469,-4.23,73,100,2.08,CN,1673507645
419,barcelona,41.3888,2.159,10.95,78,20,7.72,ES,1673507507
420,bermejo,-32.8833,-68.8,22.95,35,40,5.14,AR,1673507646
421,igrim,63.1906,64.4162,-14.12,97,99,0.93,RU,1673507646
422,songkhla,6.8333,100.6667,33.03,80,100,1.9,TH,1673507647
423,hue,16.4667,107.6,22.06,88,75,2.57,VN,1673507567
424,cocobeach,1.0002,9.5823,26.03,81,100,1.82,GA,1673507647
425,copiapo,-27.3667,-70.3333,15.83,75,0,0.78,CL,1673507648
426,progreso,21.2833,-89.6667,21.73,84,0,5.1,MX,1673507648
427,hare bay,48.8499,-54.0148,-8.78,91,12,3.12,CA,1673507649
428,lata,40.1629,-8.3327,5.04,94,100,1.14,PT,1673507649
429,nikko,36.75,139.6167,5.18,63,41,0.95,JP,1673507582
430,rio branco,-9.9747,-67.81,23.34,94,0,1.03,BR,1673507650
431,bojnurd,37.4747,57.329,-7.41,41,0,4.05,IR,1673507650
432,iqaluit,63.7506,-68.5145,-29.06,68,96,1.34,CA,1673507650
433,morondava,-20.2833,44.2833,28.16,73,100,1.96,MG,1673507651
434,bitung,1.4451,125.1824,28.47,69,100,1.97,ID,1673507651
435,saint-joseph,-21.3667,55.6167,29.21,77,79,3.71,RE,1673507651
436,manavalakurichi,8.1333,77.3,27.69,52,100,0.7,IN,1673507581
437,sibu,2.3,111.8167,28.98,73,100,0.07,MY,1673507652
438,kununurra,-15.7667,128.7333,35.99,46,100,4.12,AU,1673507652
439,cozumel,20.5083,-86.9458,19.04,94,0,0.0,MX,1673507652
440,manbij,36.5281,37.9549,5.68,43,100,3.79,SY,1673507653
441,rocha,-34.4833,-54.3333,19.25,88,40,1.43,UY,1673507653
442,biloela,-24.4167,150.5,23.72,66,100,0.92,AU,1673507653
443,ambulu,-8.345,113.6058,29.24,64,29,4.1,ID,1673507654
444,luganville,-15.5333,167.1667,25.99,82,97,2.42,VU,1673507654
445,soma,39.1855,27.6094,4.53,86,100,1.66,TR,1673507655
446,barabai,-2.5833,115.3833,30.58,63,98,1.36,ID,1673507655
447,tazovskiy,67.4667,78.7,-33.04,95,97,5.14,RU,1673507655
448,nouakchott,18.0858,-15.9785,18.72,29,0,5.38,MR,1673507656
449,conde,-7.2597,-34.9075,24.7,88,40,0.0,BR,1673507656
450,broni,45.0655,9.2623,4.23,88,91,1.14,IT,1673507656
451,hasaki,35.7333,140.8333,12.22,54,100,2.26,JP,1673507430
452,college,64.8569,-147.8028,-18.03,81,20,2.57,US,1673507657
453,vestmannaeyjar,63.4427,-20.2734,2.26,68,71,5.04,IS,1673507657
454,kachug,53.9606,105.8817,-23.05,77,100,3.49,RU,1673507657
455,sao joao del rei,-21.1356,-44.2617,18.29,97,100,0.75,BR,1673507658
456,kimbe,-5.5502,150.1429,27.58,82,100,1.24,PG,1673507658
457,wangqing,43.3218,129.7634,0.71,72,36,1.45,CN,1673507658
458,la rioja,42.25,-2.5,-3.12,58,100,2.68,ES,1673507660
459,tiznit,29.5833,-9.5,12.99,52,58,1.98,MA,1673507660
460,wattegama,6.7989,81.4808,28.42,48,74,3.85,LK,1673507660
461,mindelo,16.8901,-24.9804,21.75,73,20,11.32,CV,1673507661
462,dakoro,14.5106,6.765,12.97,27,17,5.97,NE,1673507662
463,rawson,-43.3002,-65.1023,14.31,61,100,14.76,AR,1673507662
464,mao,39.8885,4.2658,10.31,87,0,3.6,ES,1673507662
465,moranbah,-22.0016,148.0466,24.43,78,94,10.07,AU,1673507663
466,puerto escondido,15.85,-97.0667,24.17,77,0,2.04,MX,1673507663
467,tura,25.5198,90.2201,23.65,36,0,2.01,IN,1673507401
468,illapel,-31.6308,-71.1653,18.1,69,80,0.8,CL,1673507664
469,grand baie,-20.0182,57.5802,28.58,59,29,2.68,MU,1673507664
470,san isidro,-12.1167,-77.05,18.77,82,100,3.6,PE,1673507664
471,norman wells,65.282,-126.8329,-23.61,98,100,0.71,CA,1673507665
472,lavrentiya,65.5833,-171.0,-13.11,96,100,4.07,RU,1673507666
473,acapulco,16.8634,-99.8901,23.9,83,0,1.54,MX,1673507666
474,yar-sale,66.8333,70.8333,-20.66,99,100,1.72,RU,1673507666
475,panguna,-6.3164,155.4848,23.31,84,100,1.04,PG,1673507667
476,bethanien,-26.502,17.1583,29.89,21,10,2.53,NA,1673507667
477,yumen,40.2833,97.2,-6.45,18,100,6.23,CN,1673507667
478,madison,34.7334,-86.5667,18.64,92,100,5.14,US,1673507534
479,nabire,-3.3667,135.4833,28.02,81,100,0.95,ID,1673507668
480,palembang,-2.9167,104.7458,30.05,70,40,2.06,ID,1673507188
481,bundaberg,-24.85,152.35,26.23,71,99,1.79,AU,1673507669
482,jerusalem,31.769,35.2163,11.72,60,100,0.45,IL,1673507669
483,guaratinga,-16.5667,-39.5667,20.77,98,100,1.2,BR,1673507669
484,hervey bay,-25.2986,152.8535,25.47,65,91,7.01,AU,1673507670
485,mishan,45.55,131.8833,-6.5,94,6,1.43,CN,1673507670
486,padang,-0.9492,100.3543,30.03,67,97,2.85,ID,1673507670
487,salym,60.0625,71.4789,-11.53,94,100,3.8,RU,1673507671
488,eureka,40.8021,-124.1637,14.34,90,100,6.24,US,1673507672
489,nantucket,41.2835,-70.0995,3.41,81,75,3.09,US,1673507672
490,severo-kurilsk,50.6789,156.125,-4.76,75,97,12.36,RU,1673507673
491,flinders,-34.5833,150.8552,25.1,68,15,1.79,AU,1673507673
492,newport,51.5877,-2.9984,12.2,95,100,12.73,GB,1673507674
493,bogandinskiy,56.8937,65.8938,-10.82,73,100,7.4,RU,1673507674
494,bay roberts,47.5999,-53.2648,-7.08,65,11,5.29,CA,1673507674
495,zirandaro,18.45,-100.9833,22.63,51,0,0.61,MX,1673507675
496,thinadhoo,0.5333,72.9333,26.85,74,56,5.39,MV,1673507675
497,okahandja,-21.9833,16.9167,27.61,33,41,3.64,NA,1673507409
498,barcelos,41.5388,-8.6151,7.73,91,100,1.63,PT,1673507676
499,ponnani,10.767,75.9252,28.62,38,88,0.77,IN,1673507501
500,vysokogornyy,50.1167,139.15,-13.54,97,100,0.37,RU,1673507676
501,quatre cocos,-20.2078,57.7625,28.38,63,16,4.86,MU,1673507677
502,amambai,-23.1042,-55.2258,19.41,95,83,2.59,BR,1673507677
503,gayeri,12.6497,0.4931,17.39,26,48,4.12,BF,1673507677
504,kodinar,20.7903,70.7031,26.09,57,0,5.03,IN,1673507678
505,trairi,-3.2778,-39.2689,25.3,84,9,3.85,BR,1673507679
506,bardiyah,31.7561,25.0865,12.31,72,96,9.21,LY,1673507679
507,nsanje,-16.92,35.262,29.1,62,17,1.38,MW,1673507679
508,bowen,-20.0167,148.2333,28.27,67,20,5.33,AU,1673507680
509,qaqortoq,60.7167,-46.0333,-9.92,72,100,2.16,GL,1673507680
510,markt schwaben,48.1895,11.8691,5.43,85,0,5.14,DE,1673507680
511,crotone,39.0851,17.1178,11.22,57,100,2.44,IT,1673507681
512,albion,42.2431,-84.753,7.02,99,100,1.54,US,1673507681
513,canyon lake,29.8752,-98.2625,20.9,58,52,1.34,US,1673507681
514,contai,21.7786,87.7536,24.76,21,0,1.49,IN,1673507682
515,tuatapere,-46.1333,167.6833,15.24,66,13,2.42,NZ,1673507682
516,aranos,-24.1333,19.1167,30.41,17,96,7.81,NA,1673507682
517,marsa matruh,31.3525,27.2453,12.88,72,20,8.67,EG,1673507683
518,lyubech,51.7026,30.6569,-6.74,81,24,5.06,UA,1673507683
519,port hardy,50.6996,-127.4199,8.1,81,100,9.77,CA,1673507683
520,touros,-5.1989,-35.4608,26.09,69,18,5.66,BR,1673507684
521,espanola,35.9911,-106.0806,2.35,60,0,0.89,US,1673507684
522,roma,43.2128,-75.4557,1.71,77,100,4.12,US,1673507684
523,cap-aux-meules,47.3821,-61.8597,-4.99,63,100,7.2,CA,1673507685
524,price,39.5994,-110.8107,-5.49,79,0,2.06,US,1673507685
525,san quintin,30.4833,-115.95,14.58,69,3,1.27,MX,1673507685
526,kyabram,-36.3167,145.05,36.91,9,61,4.74,AU,1673507447
527,alihe,50.5667,123.7167,-9.61,92,100,0.22,CN,1673507686
528,palu,-0.8917,119.8707,29.76,66,100,2.26,ID,1673507330
529,maldonado,-34.6667,-54.9167,20.68,90,37,1.92,UY,1673507686
530,pangody,65.85,74.4859,-22.55,98,100,4.61,RU,1673507687
531,ulladulla,-35.35,150.4667,23.12,70,7,5.58,AU,1673507688
532,macau,22.2006,113.5461,20.89,94,40,4.12,MO,1673507688
533,presidencia roque saenz pena,-26.7852,-60.4388,23.2,49,86,0.85,AR,1673507688
534,basco,20.4487,121.9702,24.89,68,35,8.67,PH,1673507689
535,jining,35.405,116.5814,8.81,86,100,1.86,CN,1673507690
536,bluefields,12.0137,-83.7635,23.34,92,50,2.59,NI,1673507690
537,tambun,-6.2641,107.0712,32.17,58,40,4.12,ID,1673507690
538,hauterive,46.0901,3.4459,9.42,81,100,3.33,FR,1673507691
539,harlingen,26.1906,-97.6961,22.19,93,75,9.77,US,1673507691
540,arman,59.7,150.1667,-26.14,84,14,2.32,RU,1673507692
541,laguna,38.421,-121.4238,14.31,77,100,5.14,US,1673507692
542,aubenas,44.6201,4.3899,5.81,78,90,2.0,FR,1673507692
543,tambopata,-12.7333,-69.1833,22.15,96,100,1.23,PE,1673507693
544,bandar-e lengeh,26.5579,54.8807,18.33,53,0,7.75,IR,1673507693
545,alyangula,-13.8483,136.4192,30.4,66,56,2.71,AU,1673507694
546,altud,43.7219,43.8658,-3.75,85,14,0.59,RU,1673507695
547,rapid valley,44.0625,-103.1463,-0.76,87,0,4.12,US,1673507696
548,vila velha,-20.3297,-40.2925,25.97,84,75,2.57,BR,1673507696
549,pisco,-13.7,-76.2167,18.9,94,20,1.54,PE,1673507696
550,sao joao da barra,-21.6403,-41.0511,23.22,94,100,4.78,BR,1673507697
551,solnechnyy,50.7214,136.6319,-13.96,99,100,0.25,RU,1673507697
552,prescott valley,34.5894,-112.3252,2.34,67,0,1.54,US,1673507697
553,toora-khem,52.4675,96.11,-24.42,87,72,0.63,RU,1673507698
554,urengoy,65.9667,78.3667,-27.25,97,100,5.5,RU,1673507699
555,aksu,41.1231,80.2644,-2.73,66,100,6.09,CN,1673507699
556,gasa,31.5,34.4667,16.6,48,100,5.61,PS,1673507699
557,plettenberg bay,-34.0527,23.3716,25.11,75,85,5.67,ZA,1673507700
558,ternate,0.8,127.4,27.86,73,100,3.56,ID,1673507700
559,mount gambier,-37.8333,140.7667,21.85,53,13,4.57,AU,1673507700
560,hofn,64.2539,-15.2082,-0.31,68,5,7.89,IS,1673507499
561,dzilam gonzalez,21.2833,-88.9333,19.17,88,0,2.73,MX,1673507701
562,gonbad-e qabus,37.25,55.1672,3.59,34,5,1.45,IR,1673507701
563,sal rei,16.1833,-22.9167,22.11,73,0,7.72,CV,1673507702
564,lensk,60.7253,114.9278,-28.14,89,100,4.88,RU,1673507702
565,schortens,53.5333,7.95,8.33,93,75,8.23,DE,1673507703
566,tucuman,-26.8241,-65.2226,21.0,83,0,2.06,AR,1673507703
567,dunedin,-45.8742,170.5036,13.12,72,97,2.4,NZ,1673507405
568,seaford,50.7714,0.1027,11.98,94,100,8.94,GB,1673507704
569,petropavl,54.8753,69.1628,-12.01,61,100,7.0,KZ,1673507408
570,nichinan,31.6,131.3667,17.06,55,100,3.94,JP,1673507462
571,nyagan,62.1406,65.3936,-10.78,92,100,3.66,RU,1673507706
572,gwadar,25.1216,62.3254,16.09,28,0,9.44,PK,1673507707
573,araouane,18.9048,-3.5265,13.68,22,7,3.8,ML,1673507707
574,daru,-9.0763,143.2092,26.79,80,100,2.99,PG,1673507707
575,astana,51.1801,71.446,-20.03,71,40,10.0,KZ,1673507707
576,prainha,-1.8,-53.48,23.16,85,23,1.44,BR,1673507708
577,sumbe,-11.2061,13.8437,24.49,78,98,0.88,AO,1673507708
578,asyut,27.181,31.1837,14.31,39,0,2.27,EG,1673507708
579,weston,26.1004,-80.3998,22.22,71,0,0.45,US,1673507709
580,makaha,21.4694,-158.2175,22.95,72,0,2.06,US,1673507709
581,kensington,-33.9167,151.2167,26.84,60,0,7.72,AU,1673507709
582,savinka,50.0785,47.0994,-12.8,66,76,6.13,RU,1673507709
583,chalmette,29.9427,-89.9634,21.11,92,100,6.69,US,1673507710
584,ostersund,63.1792,14.6357,2.25,80,0,6.17,SE,1673507710
585,sokoni,-6.4333,39.55,28.32,73,100,4.93,TZ,1673507711
586,las vegas,36.175,-115.1372,7.6,71,0,2.57,US,1673507531
587,richards bay,-28.783,32.0377,26.55,57,0,3.49,ZA,1673507711
588,sterling,39.0062,-77.4286,5.06,90,100,1.54,US,1673507711
589,hualmay,-11.0964,-77.6139,20.39,79,100,3.13,PE,1673507712
590,te anau,-45.4167,167.7167,19.67,51,1,2.28,NZ,1673507712
591,itoman,26.1247,127.6694,24.01,57,20,8.75,JP,1673507689
